Timestamp,CarPitch,CarRoll,CarYaw,LatAccel,Ay,ForwardAccel,LinAccel,RGrad,ShockPot1,ShockPot2,GyX
1970-01-01 00:00:03.842,0.00,0.00,0.00,0.00,0.00,0.00,0.00,0.00,247.31,2.44,0.00
1970-01-01 00:00:03.945,0.00,0.00,0.00,0.20,-0.99,9.84,0.00,0.00,247.31,1.96,0.00
1970-01-01 00:00:04.014,-5.75,-0.97,-85.53,0.16,-0.99,9.85,0.00,-6.05,247.31,1.96,0.00
1970-01-01 00:00:04.103,-5.74,-0.97,-85.53,0.16,-0.99,9.85,0.00,-6.09,247.31,1.96,0.00
1970-01-01 00:00:04.184,-5.74,-0.97,-85.53,0.16,-0.99,9.80,0.01,-6.09,247.31,1.96,-0.01
1970-01-01 00:00:04.254,-5.75,-0.98,-85.53,0.16,-0.99,9.85,0.01,-6.12,247.56,1.96,0.00
1970-01-01 00:00:04.323,-5.75,-0.98,-85.53,0.16,-0.99,9.85,0.01,-6.12,247.31,2.20,0.00
1970-01-01 00:00:04.404,-5.75,-0.98,-85.53,0.16,-1.03,9.80,0.01,-6.12,247.31,1.96,0.00
1970-01-01 00:00:04.472,-5.75,-0.98,-85.53,0.20,-0.99,9.81,0.01,-4.92,247.31,1.96,0.00
1970-01-01 00:00:04.554,-5.75,-0.97,-85.53,0.16,-0.99,9.85,0.01,-6.08,247.31,1.96,0.00
1970-01-01 00:00:04.620,-5.75,-0.97,-85.53,0.16,-0.99,9.85,0.01,-6.08,247.31,1.96,0.00
1970-01-01 00:00:04.685,-5.75,-0.97,-85.53,0.20,-0.99,9.84,0.01,-4.89,247.56,1.96,0.00
1970-01-01 00:00:04.754,-5.77,-0.98,-85.53,0.16,-0.99,9.85,0.01,-6.11,247.31,1.96,0.00
1970-01-01 00:00:04.834,-5.77,-0.98,-85.53,0.16,-0.99,9.85,0.01,-6.14,247.31,1.96,0.00
1970-01-01 00:00:04.904,-5.77,-0.98,-85.53,0.16,-1.03,9.80,0.01,-6.14,247.31,1.96,0.00
1970-01-01 00:00:04.984,-5.77,-0.98,-85.53,0.16,-0.99,9.85,0.01,-6.14,247.56,1.96,0.00
1970-01-01 00:00:05.053,-5.77,-0.98,-85.53,0.16,-0.99,9.85,0.01,-6.14,247.31,1.96,0.00
1970-01-01 00:00:05.133,-5.77,-0.98,-85.53,0.16,-1.03,9.80,0.01,-6.14,247.31,1.96,0.00
1970-01-01 00:00:05.204,-5.77,-0.98,-85.53,0.16,-0.99,9.80,0.01,-6.14,247.56,1.96,0.00
1970-01-01 00:00:05.269,-5.77,-0.98,-85.53,0.16,-0.99,9.85,0.01,-6.14,247.31,1.96,0.00
1970-01-01 00:00:05.335,-5.77,-0.99,-85.53,0.16,-0.99,9.85,0.01,-6.17,247.31,1.96,0.00
1970-01-01 00:00:05.414,-5.77,-0.99,-85.53,0.16,-1.03,9.85,0.01,-6.17,247.31,1.96,0.00
1970-01-01 00:00:05.484,-5.77,-0.98,-85.53,0.20,-0.99,9.84,0.01,-4.94,247.31,1.96,0.00
1970-01-01 00:00:05.554,-5.77,-0.98,-85.53,0.20,-1.03,9.81,0.01,-4.91,247.31,1.96,0.00
1970-01-01 00:00:05.625,-5.77,-0.98,-85.53,0.20,-1.03,9.84,0.01,-4.91,247.31,1.96,0.00
1970-01-01 00:00:05.725,-5.76,-0.98,-85.53,0.16,-0.99,9.85,0.01,-6.14,247.56,1.96,0.00
1970-01-01 00:00:05.791,-5.77,-0.99,-85.53,0.16,-0.99,9.85,0.01,-6.17,247.31,2.20,0.00
1970-01-01 00:00:05.875,-5.77,-0.99,-85.53,0.16,-0.99,9.85,0.02,-6.17,247.31,1.96,-0.01
1970-01-01 00:00:05.944,-5.77,-0.99,-85.53,0.20,-0.99,9.81,0.02,-4.96,247.31,1.96,0.00
1970-01-01 00:00:06.015,-5.77,-0.99,-85.53,0.16,-0.99,9.85,0.02,-6.17,247.31,1.96,0.00
1970-01-01 00:00:06.104,-5.77,-0.99,-85.53,0.16,-0.99,9.85,-0.03,-6.17,247.31,1.96,-0.01
1970-01-01 00:00:06.175,-5.77,-0.99,-85.53,0.20,-1.03,9.88,-0.03,-4.96,247.31,1.96,0.00
1970-01-01 00:00:06.245,-5.77,-0.99,-85.53,0.16,-0.99,9.80,-0.03,-6.17,247.31,1.96,0.00
1970-01-01 00:00:06.314,-5.77,-0.99,-85.53,0.16,-0.99,9.89,-0.03,-6.17,247.31,1.96,0.00
1970-01-01 00:00:06.394,-5.77,-0.99,-85.54,0.16,-0.95,9.81,-0.03,-6.18,247.31,1.96,0.00
1970-01-01 00:00:06.464,-5.57,-0.93,-85.50,0.08,-1.03,10.04,-0.03,-11.34,247.31,2.20,0.01
1970-01-01 00:00:06.534,-4.58,-0.56,-84.87,0.35,0.24,9.31,-0.03,-1.59,247.31,2.20,0.69
1970-01-01 00:00:06.614,-4.45,-0.37,-85.61,-1.14,-1.95,11.00,-0.03,0.32,247.31,1.96,-0.06
1970-01-01 00:00:06.680,-4.45,-0.37,-85.61,-0.91,-0.91,12.49,-0.03,0.40,247.31,1.96,-0.10
1970-01-01 00:00:06.745,-3.87,0.15,-88.51,0.27,0.50,9.23,-0.03,0.56,247.31,1.96,0.04
1970-01-01 00:00:06.810,-4.76,0.15,-88.17,0.27,0.50,9.23,-0.03,0.53,247.31,2.20,-0.05
1970-01-01 00:00:06.894,-5.68,0.27,-88.79,-0.34,-1.22,11.19,1.15,-0.80,247.31,1.96,0.77
1970-01-01 00:00:06.974,-6.33,1.69,-89.32,-0.95,-1.03,11.00,1.15,-1.78,247.31,2.20,-0.27
1970-01-01 00:00:07.085,-4.12,12.33,-89.42,-1.52,-1.10,7.39,0.04,-8.09,247.31,1.96,2.05
1970-01-01 00:00:07.150,-4.12,12.33,-89.42,-3.67,-1.18,11.54,0.04,-3.36,247.31,1.96,-0.25
1970-01-01 00:00:07.225,-0.41,14.50,-87.30,-3.40,-0.14,9.08,0.04,-4.26,247.31,1.96,0.42
1970-01-01 00:00:07.294,1.82,15.19,-84.40,-3.40,0.35,8.01,0.04,-4.47,247.31,1.96,0.54
1970-01-01 00:00:07.364,5.02,15.36,-79.68,-2.75,1.20,7.97,0.04,-5.59,247.31,1.96,0.61
1970-01-01 00:00:07.435,5.64,14.10,-75.38,-2.75,1.04,9.08,0.04,-5.13,247.31,1.96,-0.13
1970-01-01 00:00:07.535,5.64,14.10,-75.38,-1.49,0.73,9.04,-0.60,-9.48,247.31,1.96,0.92
1970-01-01 00:00:07.615,4.69,13.60,-57.35,-2.37,0.16,8.82,-0.60,-5.74,247.31,1.96,-0.63
1970-01-01 00:00:07.685,3.38,13.63,-52.18,-3.02,0.12,9.46,-0.60,-4.51,247.31,1.96,-0.87
1970-01-01 00:00:07.754,3.87,13.56,-43.79,-2.75,0.05,9.42,-0.60,-4.93,247.31,1.96,-0.79
1970-01-01 00:00:07.825,2.33,13.41,-34.21,0.73,0.77,8.74,-0.60,18.26,247.31,1.96,-1.12
1970-01-01 00:00:07.913,-3.08,9.24,-26.83,-2.25,-1.45,10.08,-2.27,-4.10,247.56,1.96,2.76
1970-01-01 00:00:07.986,-6.82,6.25,-25.08,0.01,-2.06,7.86,-2.27,0.00,247.31,1.96,-1.73
1970-01-01 00:00:08.053,-9.77,1.64,-22.02,0.01,-2.06,7.86,-2.27,0.00,247.31,1.96,-0.56
1970-01-01 00:00:08.119,-5.99,-2.60,-20.58,1.66,-1.22,8.51,-2.27,-1.57,247.56,2.20,1.08
1970-01-01 00:00:08.204,-0.23,-7.67,-20.68,2.00,-0.03,9.38,-2.27,-3.83,247.31,1.96,1.10
1970-01-01 00:00:08.296,1.36,-7.41,-21.47,1.96,0.05,9.70,0.18,-3.78,247.80,1.96,0.80
1970-01-01 00:00:08.375,1.76,-5.49,-23.75,0.31,2.00,9.66,0.18,-17.56,246.82,1.96,0.13
1970-01-01 00:00:08.444,0.28,-5.26,-25.41,-0.14,-1.41,8.66,0.18,36.38,246.58,1.96,-0.23
1970-01-01 00:00:08.515,-1.02,-4.90,-30.02,1.73,-0.49,10.42,0.32,-2.83,245.36,1.96,0.75
1970-01-01 00:00:08.596,-1.73,-7.94,-33.66,1.12,0.39,9.46,0.32,-7.11,244.62,1.96,-0.70
1970-01-01 00:00:08.665,-1.93,-10.60,-37.91,-0.41,0.35,9.04,0.32,25.61,243.65,1.96,-0.16
1970-01-01 00:00:08.734,-2.14,-9.96,-44.61,3.07,0.62,10.04,0.32,-3.24,244.13,1.96,-0.45
1970-01-01 00:00:08.801,-0.91,-10.03,-49.37,2.34,-1.22,9.46,0.32,-4.28,243.40,1.96,0.13
1970-01-01 00:00:08.875,-0.91,-10.03,-49.37,1.27,0.39,9.89,0.04,-7.90,247.07,1.96,0.38
1970-01-01 00:00:08.955,2.68,-3.94,-54.52,1.96,0.01,11.00,0.04,-2.01,246.82,1.96,-0.02
1970-01-01 00:00:09.025,5.68,-1.10,-57.02,2.27,1.96,7.20,0.04,-0.48,247.80,1.96,1.12
1970-01-01 00:00:09.096,7.92,-0.26,-63.19,0.89,0.47,9.04,0.04,-0.29,247.31,1.96,0.40
1970-01-01 00:00:09.176,9.49,2.53,-77.51,-1.71,1.92,6.63,-0.46,-1.48,247.31,1.96,-2.27
1970-01-01 00:00:09.246,9.44,5.16,-81.93,-2.10,2.73,12.50,-0.46,-2.46,247.31,1.96,0.32
1970-01-01 00:00:09.345,8.42,3.10,-87.38,-0.26,1.62,9.24,-0.49,-11.85,247.31,1.96,0.21
1970-01-01 00:00:09.410,8.42,3.10,-87.38,4.30,4.34,15.82,-0.49,0.72,247.31,1.96,0.04
1970-01-01 00:00:09.474,8.42,3.10,-87.38,-1.41,-1.07,9.73,-1.98,-2.20,247.31,1.96,-0.31
1970-01-01 00:00:09.543,8.42,3.10,-87.38,0.81,2.11,9.16,-1.98,3.82,247.31,1.96,0.57
1970-01-01 00:00:09.636,11.20,-0.94,-96.81,0.12,0.24,9.85,0.37,-7.80,247.31,1.96,-0.36
1970-01-01 00:00:09.717,9.02,-3.19,-99.91,1.20,0.35,9.70,-0.93,-2.67,247.31,1.96,1.02
1970-01-01 00:00:09.786,7.12,-2.53,-105.53,-0.53,-0.64,10.77,-0.93,4.80,247.31,1.96,-0.54
1970-01-01 00:00:09.855,7.12,-2.53,-105.53,0.35,1.08,8.92,0.01,-7.20,247.31,1.96,-0.50
1970-01-01 00:00:09.926,8.32,-2.11,-107.48,-0.07,2.38,8.89,-0.95,29.94,247.31,1.96,0.16
1970-01-01 00:00:09.996,9.66,-3.34,-106.22,0.93,1.66,9.42,-0.95,-3.61,247.31,1.96,0.01
1970-01-01 00:00:10.062,9.90,-3.41,-105.45,1.27,1.08,10.15,-0.95,-2.69,247.56,1.96,0.12
1970-01-01 00:00:10.132,9.90,-3.41,-105.45,0.24,1.88,9.88,-0.95,-14.33,247.31,1.96,0.25
1970-01-01 00:00:10.216,10.44,-3.31,-104.85,0.77,1.85,9.58,-0.05,-4.28,247.31,1.96,0.16
1970-01-01 00:00:10.296,9.53,-4.03,-105.19,0.73,1.69,9.46,-0.05,-5.49,247.31,1.96,-0.15
1970-01-01 00:00:10.365,8.86,-4.45,-105.42,0.89,1.39,9.58,-0.05,-5.02,247.31,1.96,-0.18
1970-01-01 00:00:10.435,7.47,-5.47,-105.76,1.12,1.04,9.96,-0.05,-4.89,247.31,1.96,-0.39
1970-01-01 00:00:10.505,6.91,-5.75,-105.96,1.04,1.08,9.92,-0.05,-5.52,247.31,1.96,-0.19
1970-01-01 00:00:10.572,7.02,-5.38,-105.95,0.96,1.08,9.80,-0.05,-5.58,247.31,1.96,0.02
1970-01-01 00:00:10.646,7.02,-5.38,-105.95,0.85,1.00,9.58,-0.05,-6.32,247.31,1.96,-0.18
1970-01-01 00:00:10.713,6.31,-4.09,-105.81,0.66,1.00,9.85,-0.05,-6.20,247.56,1.96,-0.07
1970-01-01 00:00:10.805,5.04,-3.74,-105.79,0.54,0.77,9.88,0.13,-6.89,247.31,1.96,0.07
1970-01-01 00:00:10.875,4.41,-3.54,-105.77,0.66,0.50,9.96,0.13,-5.36,247.31,1.96,-0.20
1970-01-01 00:00:10.944,3.45,-3.10,-105.71,0.62,0.43,9.81,0.13,-4.99,247.31,1.96,-0.28
1970-01-01 00:00:11.024,2.55,-2.28,-105.63,0.54,0.54,9.73,0.13,-4.19,247.31,1.96,-0.23
1970-01-01 00:00:11.116,2.55,-2.28,-105.63,0.43,0.31,9.66,0.13,-5.30,247.31,1.96,-0.17
1970-01-01 00:00:11.206,1.27,-2.32,-105.66,0.16,0.24,10.00,0.00,-14.50,247.31,1.96,-0.09
1970-01-01 00:00:11.275,0.88,-2.89,-105.66,0.77,0.01,9.84,0.00,-3.73,247.56,2.20,-0.11
1970-01-01 00:00:11.345,0.09,-2.84,-105.68,0.50,-0.03,9.80,0.00,-5.63,247.31,1.96,-0.27
1970-01-01 00:00:11.425,0.23,-2.46,-105.57,0.39,-0.03,9.81,-0.11,-6.31,247.31,1.96,0.00
1970-01-01 00:00:11.494,0.35,-2.75,-105.54,0.54,0.05,9.81,-0.11,-5.06,247.31,1.96,0.07
1970-01-01 00:00:11.565,0.38,-2.88,-105.52,0.47,-0.03,9.96,-0.11,-6.15,247.31,1.96,0.03
1970-01-01 00:00:11.634,0.35,-2.86,-105.51,0.54,0.01,9.80,-0.11,-5.27,247.56,1.96,-0.00
1970-01-01 00:00:11.716,0.47,-2.94,-105.52,0.62,0.09,9.77,-0.08,-4.74,247.31,1.96,0.05
1970-01-01 00:00:11.786,0.49,-3.14,-105.55,0.47,0.01,9.77,-0.08,-6.69,247.56,1.96,-0.01
1970-01-01 00:00:11.854,0.47,-3.52,-105.51,0.77,0.05,9.85,-0.08,-4.55,247.31,1.96,0.00
1970-01-01 00:00:11.925,0.28,-3.92,-105.59,0.73,-0.03,9.93,-0.08,-5.33,247.31,1.96,-0.06
1970-01-01 00:00:11.995,0.21,-4.04,-105.66,0.73,0.01,9.84,-0.08,-5.50,247.31,2.20,-0.02
1970-01-01 00:00:12.065,0.22,-3.89,-105.65,0.66,0.01,9.85,-0.08,-5.89,247.31,1.96,-0.01
1970-01-01 00:00:12.134,0.26,-3.65,-105.61,0.62,-0.03,9.92,-0.08,-5.87,247.31,1.96,0.02
1970-01-01 00:00:12.206,0.26,-3.66,-105.62,0.66,0.01,9.92,0.00,-5.55,247.31,1.96,0.03
1970-01-01 00:00:12.276,0.22,-3.54,-105.64,0.50,-0.07,9.88,0.00,-7.02,247.31,1.96,-0.02
1970-01-01 00:00:12.343,0.25,-3.17,-105.61,0.58,0.05,9.81,0.00,-5.45,247.31,1.96,0.00
1970-01-01 00:00:12.426,0.26,-2.72,-105.53,0.47,0.05,9.84,-0.00,-5.80,247.31,1.96,-0.02
1970-01-01 00:00:12.496,0.24,-2.56,-105.50,0.43,0.01,9.93,-0.00,-5.95,247.31,1.96,0.01
1970-01-01 00:00:12.576,0.29,-2.65,-105.45,0.47,0.09,9.77,-0.05,-5.65,247.31,1.96,0.04
1970-01-01 00:00:12.646,0.27,-2.48,-105.44,0.35,-0.03,9.92,-0.05,-7.06,247.31,1.96,0.00
1970-01-01 00:00:12.716,0.23,-2.53,-105.45,0.50,0.09,9.80,-0.05,-5.02,247.56,1.96,-0.01
1970-01-01 00:00:12.805,0.26,-2.47,-105.45,0.39,0.01,9.88,-0.09,-6.31,247.31,1.96,-0.01
1970-01-01 00:00:12.896,0.26,-2.47,-105.45,0.43,0.05,9.80,-0.09,-5.74,247.31,1.96,-0.03
1970-01-01 00:00:12.966,0.08,-2.33,-105.43,0.31,0.05,10.00,-0.09,-7.44,247.31,1.96,-0.02
1970-01-01 00:00:13.055,-0.10,-0.94,-105.22,0.16,-0.18,10.00,0.09,-5.88,247.31,1.96,0.01
1970-01-01 00:00:13.126,-0.02,-0.19,-105.15,0.05,-0.11,9.85,0.09,-4.11,247.31,1.96,0.00
1970-01-01 00:00:13.196,0.39,0.49,-104.93,0.01,0.09,9.77,0.09,0.00,247.31,1.96,0.13
1970-01-01 00:00:13.266,0.45,0.86,-104.86,-0.03,0.12,9.92,0.09,-27.40,247.31,1.96,0.02
1970-01-01 00:00:13.335,0.19,1.60,-104.75,-0.34,-0.11,10.19,0.09,-4.76,247.31,1.96,-0.09
1970-01-01 00:00:13.407,0.18,3.38,-104.32,-0.53,0.16,9.73,0.09,-6.42,247.31,1.96,-0.01
1970-01-01 00:00:13.476,0.46,6.86,-103.48,-1.30,0.16,9.54,0.09,-5.29,247.31,1.96,0.09
1970-01-01 00:00:13.545,0.29,10.26,-102.80,-1.79,0.09,9.42,0.09,-5.72,247.31,1.96,-0.06
1970-01-01 00:00:13.636,-0.35,12.19,-102.61,-1.95,-0.22,9.58,0.02,-6.27,247.31,1.96,-0.21
1970-01-01 00:00:13.706,-1.42,13.31,-102.65,-2.25,-0.26,9.54,0.02,-5.91,247.31,1.96,-0.21
1970-01-01 00:00:13.776,-2.16,14.48,-102.76,-2.64,-0.57,9.62,0.02,-5.49,247.31,1.96,-0.20
1970-01-01 00:00:13.846,-2.62,15.89,-102.65,-2.68,-0.68,9.46,0.02,-5.94,247.31,1.96,-0.11
1970-01-01 00:00:13.916,-2.33,17.81,-102.05,-3.09,-0.26,9.20,0.02,-5.76,247.31,1.96,0.03
1970-01-01 00:00:13.996,-1.99,20.51,-101.31,-3.32,-0.22,9.16,0.02,-6.17,247.31,1.96,-0.01
1970-01-01 00:00:14.065,-1.79,21.47,-100.97,-3.63,-0.14,9.20,0.02,-5.91,247.31,1.96,0.03
1970-01-01 00:00:14.136,-1.34,22.69,-100.48,-3.79,-0.11,9.08,0.02,-5.99,247.31,1.96,0.07
1970-01-01 00:00:14.206,-0.93,24.04,-99.97,-3.90,0.01,8.81,0.02,-6.17,247.31,1.96,0.05
1970-01-01 00:00:14.275,-0.70,25.43,-99.57,-4.21,-0.14,8.86,0.02,-6.04,247.31,2.20,0.02
1970-01-01 00:00:14.345,-0.27,26.96,-99.00,-4.44,0.16,8.54,0.02,-6.08,247.31,1.96,0.04
1970-01-01 00:00:14.416,0.14,28.39,-98.46,-4.67,0.09,8.54,0.02,-6.08,247.31,1.96,0.03
1970-01-01 00:00:14.496,0.19,29.89,-98.06,-4.74,0.09,8.58,0.01,-6.30,247.31,1.96,0.13
1970-01-01 00:00:14.565,0.23,30.58,-97.91,-5.05,-0.14,8.58,0.01,-6.06,247.31,1.96,-0.01
1970-01-01 00:00:14.687,0.70,33.82,-97.37,-5.36,0.20,8.09,-0.09,-6.31,247.31,1.96,0.16
1970-01-01 00:00:14.753,0.70,33.82,-97.37,-5.36,0.24,8.05,-0.09,-6.31,247.31,1.96,0.03
1970-01-01 00:00:14.827,1.06,35.39,-97.06,-5.43,0.05,8.23,-0.09,-6.51,247.56,2.20,0.02
1970-01-01 00:00:14.894,1.38,36.86,-96.93,-5.43,0.05,8.23,-0.09,-6.78,247.31,1.96,0.14
1970-01-01 00:00:14.976,1.87,38.39,-96.69,-5.97,0.54,7.29,-0.28,-6.43,247.31,1.96,0.07
1970-01-01 00:00:15.044,1.87,38.39,-96.69,-6.08,0.35,7.51,-0.28,-6.31,247.31,1.96,-0.06
1970-01-01 00:00:15.116,2.16,40.26,-96.36,-6.27,0.31,7.43,-0.28,-6.42,247.56,1.96,0.01
1970-01-01 00:00:15.186,2.57,41.26,-96.01,-6.43,0.47,7.28,-0.28,-6.42,247.31,1.96,0.04
1970-01-01 00:00:15.256,2.87,42.24,-95.71,-6.43,0.39,7.25,-0.28,-6.57,247.56,1.96,0.02
1970-01-01 00:00:15.327,3.30,43.43,-95.28,-6.62,0.66,6.79,-0.28,-6.56,247.31,1.96,0.04
1970-01-01 00:00:15.397,3.32,44.35,-95.17,-6.77,0.35,6.94,-0.28,-6.55,247.56,1.96,-0.02
1970-01-01 00:00:15.467,3.23,44.94,-95.28,-6.77,0.43,7.01,-0.28,-6.64,247.31,1.96,0.02
1970-01-01 00:00:15.536,3.27,46.02,-95.20,-6.92,0.62,6.63,-0.28,-6.65,247.31,1.96,0.00
1970-01-01 00:00:15.627,3.66,48.57,-94.68,-7.46,0.70,6.40,0.03,-6.51,247.31,1.96,-0.08
1970-01-01 00:00:15.698,4.09,49.95,-94.20,-7.31,0.50,6.02,0.03,-6.83,247.31,1.96,0.03
1970-01-01 00:00:15.766,4.40,51.59,-93.79,-7.54,0.35,5.94,0.03,-6.84,247.31,1.96,-0.02
1970-01-01 00:00:15.837,4.53,52.61,-93.87,-7.73,0.77,5.59,0.03,-6.81,247.31,1.96,0.03
1970-01-01 00:00:15.906,4.41,53.73,-93.96,-7.81,0.54,5.67,0.03,-6.88,247.56,1.96,-0.04
1970-01-01 00:00:15.976,4.60,54.85,-93.63,-7.92,0.58,5.59,0.03,-6.92,247.31,1.96,0.02
1970-01-01 00:00:16.046,5.06,56.22,-93.09,-8.19,0.62,5.21,0.03,-6.87,247.31,1.96,0.02
1970-01-01 00:00:16.117,5.82,57.71,-92.25,-8.35,0.66,5.14,0.03,-6.91,247.31,1.96,0.00
1970-01-01 00:00:16.186,7.09,59.32,-91.19,-8.30,0.70,4.60,0.03,-7.14,247.31,1.96,0.10
1970-01-01 00:00:16.266,7.62,60.66,-90.67,-8.23,0.73,4.68,0.03,-7.37,247.31,1.96,0.02
1970-01-01 00:00:16.336,7.80,61.50,-90.43,-8.49,0.66,4.56,0.03,-7.24,247.31,1.96,-0.02
1970-01-01 00:00:16.426,7.80,61.50,-90.43,-8.73,0.50,4.52,0.03,-7.05,247.31,1.96,0.00
1970-01-01 00:00:16.492,7.80,61.50,-90.43,-8.50,0.93,3.72,0.03,-7.24,247.31,1.96,-0.01
1970-01-01 00:00:16.557,7.80,61.50,-90.43,-8.57,1.46,3.57,0.03,-7.18,247.31,1.96,0.10
1970-01-01 00:00:16.626,16.18,68.90,-81.88,-9.07,1.23,2.99,0.03,-7.60,247.31,1.96,0.00
1970-01-01 00:00:16.695,17.55,71.05,-80.20,-9.34,0.66,2.99,0.03,-7.61,247.31,1.96,-0.04
1970-01-01 00:00:16.763,21.25,73.52,-76.13,-9.57,1.08,2.41,0.03,-7.68,247.31,2.20,-0.01
1970-01-01 00:00:16.837,21.25,73.52,-76.13,-9.64,0.93,2.03,-0.45,-7.63,247.31,1.96,0.15
1970-01-01 00:00:16.916,32.17,76.07,-64.74,-9.34,1.31,1.96,-0.05,-8.15,247.31,2.20,0.14
1970-01-01 00:00:16.987,41.69,76.81,-54.63,-9.11,2.04,1.30,-0.05,-8.43,247.31,1.96,-0.07
1970-01-01 00:00:17.056,48.94,77.93,-46.87,-9.15,1.73,1.00,-0.05,-8.51,247.31,1.96,-0.08
1970-01-01 00:00:17.145,60.17,79.65,-35.14,-9.38,1.58,0.50,-0.18,-8.50,247.31,1.96,0.20
1970-01-01 00:00:17.214,66.08,80.20,-29.03,-9.49,1.69,0.35,-0.18,-8.45,247.31,1.96,-0.03
1970-01-01 00:00:17.288,73.42,80.67,-21.47,-9.38,1.73,0.12,-0.18,-8.60,247.31,1.96,-0.03
1970-01-01 00:00:17.357,78.82,80.98,-15.85,-9.34,1.54,0.16,-0.18,-8.67,247.31,2.20,-0.02
1970-01-01 00:00:17.436,84.76,80.79,-9.93,-9.45,1.43,0.04,-0.18,-8.55,247.31,1.96,-0.03
1970-01-01 00:00:17.507,91.65,80.50,-2.96,-9.49,1.85,-0.57,-0.18,-8.48,247.31,1.96,0.05
1970-01-01 00:00:17.597,100.60,79.87,6.44,-9.26,1.88,-0.65,0.24,-8.62,247.31,1.96,-0.02
1970-01-01 00:00:17.667,105.44,79.44,11.57,-9.15,1.88,-0.73,0.24,-8.68,247.31,2.20,-0.05
1970-01-01 00:00:17.735,111.62,78.61,17.99,-9.54,1.85,-0.84,0.24,-8.24,247.31,2.20,-0.03
1970-01-01 00:00:17.817,117.73,77.56,24.25,-9.07,2.08,-1.11,0.24,-8.55,247.31,1.96,-0.03
1970-01-01 00:00:17.887,119.23,77.28,25.64,-9.11,2.11,-1.15,0.24,-8.48,247.31,1.96,0.04
1970-01-01 00:00:17.967,119.90,76.57,26.20,-9.26,2.23,-1.37,0.24,-8.27,247.56,1.96,0.01
1970-01-01 00:00:18.077,124.00,74.73,30.47,-9.19,2.27,-1.68,0.24,-8.13,247.31,1.96,0.00
1970-01-01 00:00:18.147,125.97,73.98,32.54,-9.15,2.23,-1.76,0.24,-8.08,247.31,1.96,0.01
1970-01-01 00:00:18.217,128.07,72.76,34.84,-9.07,2.27,-2.07,0.24,-8.02,247.31,1.96,-0.04
1970-01-01 00:00:18.287,129.72,71.72,36.56,-9.03,2.30,-2.14,0.24,-7.94,247.31,1.96,-0.01
1970-01-01 00:00:18.357,130.99,70.86,37.77,-9.00,2.38,-2.26,0.24,-7.88,247.31,1.96,0.18
1970-01-01 00:00:18.427,133.07,70.54,39.51,-9.26,2.42,-2.45,0.24,-7.62,247.31,1.96,0.06
1970-01-01 00:00:18.495,133.49,69.95,40.21,-8.84,2.30,-2.34,0.24,-7.92,247.31,1.96,-0.05
1970-01-01 00:00:18.565,133.49,69.95,40.21,-8.96,2.57,-2.64,0.24,-7.81,247.31,1.96,-0.07
1970-01-01 00:00:18.636,133.49,69.95,40.21,-9.11,2.46,-2.41,0.24,-7.68,247.31,1.96,-0.03
1970-01-01 00:00:18.704,133.49,69.95,40.21,-8.95,3.07,-2.95,-0.39,-7.81,247.31,2.20,-0.06
1970-01-01 00:00:18.775,133.49,69.95,40.21,-8.46,2.50,-2.26,-0.39,-8.27,247.31,2.20,-0.07
1970-01-01 00:00:18.847,132.79,67.23,40.92,-8.99,2.57,-2.91,-0.39,-7.48,247.31,1.96,-0.14
1970-01-01 00:00:18.913,132.79,67.23,40.92,-8.88,3.46,-3.02,-0.39,-7.57,247.31,1.96,0.04
1970-01-01 00:00:18.995,132.76,67.68,41.11,-8.88,2.80,-2.64,-0.39,-7.62,247.31,2.20,-0.14
1970-01-01 00:00:19.062,132.76,67.68,41.11,-9.61,2.88,-2.53,-0.39,-7.04,247.07,1.96,-0.14
1970-01-01 00:00:19.137,132.76,67.68,41.11,-8.65,3.07,-3.10,-0.39,-7.82,247.56,2.20,-0.03
1970-01-01 00:00:19.206,132.76,67.68,41.11,-7.23,3.65,-1.03,-0.39,-9.36,247.31,1.96,0.06
1970-01-01 00:00:19.277,133.47,62.78,43.25,-8.54,3.04,-3.33,-0.39,-7.36,247.31,1.96,0.00
1970-01-01 00:00:19.347,140.67,60.80,53.19,-8.57,3.15,-3.37,0.26,-7.09,247.56,1.96,-0.55
1970-01-01 00:00:19.417,145.14,57.76,58.76,-8.11,2.80,-4.25,0.26,-7.12,247.31,1.96,-0.09
1970-01-01 00:00:19.487,148.86,55.37,61.34,-7.65,2.46,-5.02,0.26,-7.24,247.31,1.96,0.45
1970-01-01 00:00:19.567,152.43,52.50,62.20,-7.54,3.04,-5.82,0.21,-6.96,247.31,1.96,0.39
1970-01-01 00:00:19.637,154.43,51.23,62.93,-7.24,2.88,-6.74,0.21,-7.08,247.31,1.96,0.60
1970-01-01 00:00:19.707,155.43,47.77,64.40,-6.62,2.80,-6.71,0.21,-7.22,247.31,1.96,-0.04
1970-01-01 00:00:19.808,155.66,44.73,65.80,-6.31,2.73,-7.01,-0.77,-7.09,247.31,1.96,0.39
1970-01-01 00:00:19.873,155.66,44.73,65.80,-6.31,2.73,-7.01,-0.43,-7.09,247.56,1.96,0.18
1970-01-01 00:00:19.957,157.97,38.20,69.70,-5.74,2.88,-7.12,-0.07,-6.66,247.31,1.96,-0.12
1970-01-01 00:00:20.025,158.15,35.28,71.00,-5.36,2.96,-7.73,-0.07,-6.59,247.31,2.20,-0.15
1970-01-01 00:00:20.092,158.15,35.28,71.00,-5.01,3.04,-8.04,-0.07,-7.04,247.31,1.96,-0.21
1970-01-01 00:00:20.177,158.15,35.28,71.00,-4.51,3.23,-7.58,0.09,-7.82,247.56,1.96,0.04
1970-01-01 00:00:20.248,156.78,27.99,74.19,-4.29,3.38,-8.00,0.09,-6.53,247.56,1.96,-0.32
1970-01-01 00:00:20.316,156.72,25.66,75.51,-3.90,3.46,-8.31,0.09,-6.58,247.56,1.96,-0.08
1970-01-01 00:00:20.397,157.04,22.46,77.32,-3.59,3.72,-8.66,-0.25,-6.25,247.31,1.96,0.01
1970-01-01 00:00:20.468,156.86,20.49,78.31,-3.06,3.61,-8.73,-0.25,-6.70,247.31,1.96,-0.18
1970-01-01 00:00:20.538,156.38,17.60,79.60,-2.75,3.72,-8.80,-0.25,-6.40,247.31,1.96,-0.20
1970-01-01 00:00:20.607,155.66,15.31,80.51,-2.41,3.91,-8.73,-0.25,-6.36,247.31,1.96,-0.23
1970-01-01 00:00:20.677,154.94,13.13,81.07,-1.95,3.99,-8.62,-0.25,-6.75,247.31,1.96,-0.23
1970-01-01 00:00:20.748,154.94,13.13,81.07,-1.95,3.99,-8.62,-0.25,-6.75,247.31,1.96,0.02
1970-01-01 00:00:20.818,154.63,8.81,81.75,-1.18,4.14,-8.96,-0.25,-7.47,247.31,1.96,0.04
1970-01-01 00:00:20.898,154.96,7.01,82.13,-0.91,3.72,-8.77,-0.08,-7.67,247.31,1.96,0.04
1970-01-01 00:00:20.965,154.96,7.01,82.13,-0.91,3.72,-8.77,-0.91,-7.67,247.31,1.96,-0.02
1970-01-01 00:00:21.037,154.52,3.68,82.43,-0.18,4.11,-8.77,-0.91,-20.04,247.31,1.96,-0.16
1970-01-01 00:00:21.117,154.94,2.79,82.55,-0.18,4.07,-8.93,-0.91,-15.20,247.56,1.96,0.10
1970-01-01 00:00:21.187,155.14,2.53,82.89,-0.37,3.72,-8.77,-0.91,-6.74,247.31,1.96,0.09
1970-01-01 00:00:21.257,155.69,2.06,83.52,-0.61,3.84,-9.73,-0.91,-3.41,247.31,2.20,0.14
1970-01-01 00:00:21.326,155.57,1.30,84.19,0.66,4.95,-10.07,-0.91,1.97,247.31,1.96,-0.15
1970-01-01 00:00:21.395,155.21,0.59,84.97,-0.45,3.04,-10.38,-0.91,-1.30,247.31,1.96,0.44
1970-01-01 00:00:21.477,154.68,2.90,83.70,-0.03,5.29,-6.05,-1.89,-92.72,247.56,1.96,0.49
1970-01-01 00:00:21.578,154.68,2.90,83.70,-0.37,4.49,-9.35,-0.15,-7.73,247.31,1.96,-0.21
1970-01-01 00:00:21.657,151.24,-1.76,87.46,-0.07,5.06,-10.19,-0.15,24.99,247.31,1.96,-0.32
1970-01-01 00:00:21.727,148.49,-5.24,90.38,1.35,4.87,-7.20,-0.15,-3.89,247.56,1.71,-0.93
1970-01-01 00:00:21.798,144.36,-9.01,93.98,1.54,5.52,-9.80,-0.15,-5.85,247.31,1.96,-0.59
1970-01-01 00:00:21.877,139.92,-13.52,98.45,2.11,5.83,-7.24,0.28,-6.40,247.31,1.96,0.84
1970-01-01 00:00:21.948,138.78,-15.34,100.19,2.92,6.29,-7.16,0.28,-5.26,247.31,1.96,-0.34
1970-01-01 00:00:22.016,137.38,-17.43,102.01,3.23,6.48,-7.39,0.28,-5.40,247.31,1.96,0.09
1970-01-01 00:00:22.084,137.99,-19.78,103.65,3.57,6.41,-7.39,0.28,-5.54,247.31,1.96,0.36
1970-01-01 00:00:22.157,137.99,-19.78,103.65,3.80,5.41,-7.58,-0.80,-5.20,247.31,1.96,-0.26
1970-01-01 00:00:22.228,140.67,-24.43,106.11,4.37,5.14,-6.55,-0.80,-5.58,247.31,1.96,0.29
1970-01-01 00:00:22.295,143.54,-26.13,106.01,4.57,5.22,-7.58,-0.80,-5.72,247.56,2.20,0.78
1970-01-01 00:00:22.377,143.54,-26.13,106.01,4.87,4.03,-6.73,0.13,-5.36,247.31,1.96,0.11
1970-01-01 00:00:22.448,147.76,-30.36,106.17,5.14,4.18,-7.20,0.13,-5.91,247.31,1.96,0.61
1970-01-01 00:00:22.518,150.72,-33.22,106.51,5.52,3.68,-7.35,0.13,-6.01,247.31,1.96,0.81
1970-01-01 00:00:22.588,152.87,-36.98,106.90,6.18,3.34,-7.32,0.13,-5.99,247.31,1.96,0.60
1970-01-01 00:00:22.668,153.63,-40.83,107.31,6.56,3.27,-7.20,-0.64,-6.23,247.31,1.96,-0.06
1970-01-01 00:00:22.737,154.23,-44.31,107.29,6.98,2.69,-5.86,-0.64,-6.35,247.31,1.96,0.17
1970-01-01 00:00:22.816,154.94,-49.02,107.42,7.52,2.65,-6.62,-0.64,-6.52,247.31,1.96,0.02
1970-01-01 00:00:22.887,156.48,-52.64,107.79,8.39,2.23,-6.32,-0.64,-6.27,247.31,1.96,0.79
1970-01-01 00:00:22.958,155.79,-56.83,108.17,8.85,2.08,-5.44,-0.64,-6.42,247.31,2.20,-0.07
1970-01-01 00:00:23.028,151.70,-61.14,110.45,9.01,2.15,-3.79,-0.64,-6.79,247.31,1.96,-0.59
1970-01-01 00:00:23.108,145.11,-65.10,115.36,9.31,2.42,-2.60,0.03,-6.99,247.56,1.96,0.02
1970-01-01 00:00:23.178,135.04,-69.24,124.02,9.20,2.46,-2.53,0.03,-7.53,247.31,1.96,-0.49
1970-01-01 00:00:23.248,123.88,-71.79,134.05,9.05,2.19,-1.61,0.03,-7.94,247.31,1.96,-0.42
1970-01-01 00:00:23.358,123.88,-71.79,134.05,10.27,3.27,0.16,0.27,-6.99,247.31,1.96,0.30
1970-01-01 00:00:23.428,82.89,-73.61,174.46,9.89,3.34,0.35,0.27,-7.44,247.31,1.96,-0.14
1970-01-01 00:00:23.508,59.95,-70.03,-161.40,8.85,1.88,1.00,0.10,-7.91,247.31,1.96,0.20
1970-01-01 00:00:23.578,52.58,-67.54,-153.44,9.66,2.96,3.14,0.10,-6.99,247.31,1.96,0.07
1970-01-01 00:00:23.648,44.48,-62.76,-145.03,9.01,3.34,3.34,0.10,-6.96,247.31,1.96,-0.12
1970-01-01 00:00:23.718,38.72,-57.74,-138.79,8.05,3.15,4.06,0.10,-7.17,247.31,1.96,-0.10
1970-01-01 00:00:23.788,33.88,-52.16,-133.65,7.63,3.23,4.83,0.10,-6.84,247.31,1.96,-0.20
1970-01-01 00:00:23.858,30.62,-47.12,-129.73,7.17,3.07,6.36,0.10,-6.57,247.31,1.96,-0.04
1970-01-01 00:00:23.924,28.62,-42.13,-126.18,7.17,3.07,6.36,0.10,-5.87,247.31,1.96,0.35
1970-01-01 00:00:24.007,27.48,-36.54,-121.80,6.79,4.26,6.86,0.10,-5.38,247.31,1.96,0.21
1970-01-01 00:00:24.077,26.16,-33.75,-119.88,5.79,3.84,7.12,0.10,-5.83,247.31,1.96,0.15
1970-01-01 00:00:24.159,21.29,-28.61,-116.48,4.30,3.00,8.66,0.33,-6.66,247.31,1.96,-0.43
1970-01-01 00:00:24.228,17.50,-23.57,-113.69,3.61,3.07,7.43,0.33,-6.53,247.31,1.96,-0.23
1970-01-01 00:00:24.298,15.41,-18.78,-111.69,2.61,1.81,9.70,0.33,-7.19,247.31,1.96,-0.53
1970-01-01 00:00:24.378,13.50,-9.74,-109.87,1.50,1.96,9.62,-0.66,-6.49,247.31,1.96,-0.38
1970-01-01 00:00:24.448,12.85,-8.88,-108.84,2.50,3.34,9.08,-0.66,-3.56,247.31,1.96,-0.35
1970-01-01 00:00:24.518,10.90,-6.60,-108.12,1.20,0.70,8.70,-0.66,-5.52,247.31,1.96,-0.52
1970-01-01 00:00:24.599,5.22,-1.92,-108.11,0.54,1.69,9.46,-0.66,-3.53,247.56,1.96,-0.71
1970-01-01 00:00:24.665,5.22,-1.92,-108.11,0.54,1.69,9.46,1.60,-3.53,247.31,1.96,-0.45
1970-01-01 00:00:24.748,2.15,1.37,-109.02,-0.76,0.09,9.39,1.60,-1.81,247.56,1.96,-0.53
1970-01-01 00:00:24.815,2.15,1.37,-109.02,-0.14,0.50,9.35,1.60,-9.50,247.56,1.96,-0.10
1970-01-01 00:00:24.889,-0.19,0.55,-109.69,1.08,0.62,9.43,1.60,0.51,247.56,1.96,-0.23
1970-01-01 00:00:24.957,0.27,1.31,-110.03,1.08,0.62,9.43,1.60,1.21,247.31,2.20,-0.80
1970-01-01 00:00:25.027,-2.20,2.02,-110.34,-0.22,-1.26,11.34,1.60,-9.09,247.31,1.96,-0.42
1970-01-01 00:00:25.128,-4.97,4.27,-110.35,-0.88,-0.37,8.54,1.60,-4.89,247.31,1.96,-0.34
1970-01-01 00:00:25.208,-8.40,2.14,-111.52,-1.45,-1.95,11.96,1.60,-1.48,247.31,1.96,-0.88
1970-01-01 00:00:25.279,-7.43,2.77,-110.81,0.05,-1.49,10.19,1.60,59.01,247.31,2.20,0.18
1970-01-01 00:00:25.349,-6.14,3.23,-109.97,-0.57,-0.57,9.73,1.60,-5.71,247.31,1.96,0.15
1970-01-01 00:00:25.418,-5.19,4.42,-110.16,-0.80,-0.53,10.00,1.60,-5.55,247.31,1.96,-0.13
1970-01-01 00:00:25.488,-5.41,5.58,-109.18,-0.26,-0.99,9.38,1.60,-21.30,247.31,1.96,-0.11
1970-01-01 00:00:25.558,-5.34,5.98,-108.39,-1.03,-1.29,10.23,1.60,-5.82,247.31,1.96,0.07
1970-01-01 00:00:25.625,-5.77,6.23,-108.67,-1.18,-1.22,10.31,1.60,-5.28,247.31,1.96,-0.11
1970-01-01 00:00:25.699,-5.77,6.23,-108.67,-0.18,-0.99,9.66,1.60,-33.94,247.31,2.20,-0.01
1970-01-01 00:00:25.764,-6.19,4.75,-108.83,-0.18,-0.99,9.66,1.60,-25.89,247.31,1.96,-0.04
1970-01-01 00:00:25.858,-6.23,4.44,-108.13,-0.07,-0.88,9.93,-0.12,-63.13,247.07,1.96,0.50
1970-01-01 00:00:25.928,-6.23,4.53,-107.89,-0.45,-1.07,9.93,-0.12,-9.99,247.31,1.96,-0.02
1970-01-01 00:00:25.998,-6.33,5.07,-107.85,-1.14,-1.14,10.42,-0.12,-4.45,247.31,1.96,-0.03
1970-01-01 00:00:26.069,-5.99,5.73,-107.74,-0.95,-0.68,9.70,-0.12,-6.04,247.31,1.96,0.06
1970-01-01 00:00:26.134,-5.99,5.73,-107.74,-0.95,-0.68,9.70,-0.00,-6.04,247.31,1.96,0.15
1970-01-01 00:00:26.218,-4.58,7.01,-106.63,-1.03,-1.03,9.70,0.16,-6.83,247.56,1.96,0.35
1970-01-01 00:00:26.299,-3.68,7.98,-106.36,-1.18,-0.49,9.46,0.16,-6.76,247.31,1.96,0.23
1970-01-01 00:00:26.369,-3.55,8.54,-106.22,-1.26,-0.45,9.54,0.16,-6.79,247.31,1.96,0.07
1970-01-01 00:00:26.436,-3.71,8.91,-106.15,-1.26,-0.45,9.54,0.16,-7.08,247.56,1.96,-0.02
1970-01-01 00:00:26.519,-3.95,9.19,-106.33,-1.71,-1.03,10.15,0.37,-5.36,247.31,1.96,-0.21
1970-01-01 00:00:26.586,-3.95,9.19,-106.33,-1.56,-0.91,9.96,0.37,-5.88,247.56,1.96,0.09
1970-01-01 00:00:26.657,-3.42,9.18,-106.09,-1.14,-0.64,9.58,0.37,-8.05,247.31,1.96,0.07
1970-01-01 00:00:26.759,-2.78,9.29,-106.34,-1.64,-0.37,9.96,0.12,-5.66,247.31,1.96,-0.09
1970-01-01 00:00:26.829,-2.58,9.58,-106.42,-1.95,-0.30,9.85,0.12,-4.92,247.31,1.96,0.06
1970-01-01 00:00:26.926,-2.58,9.58,-106.42,-1.49,-0.14,9.62,0.12,-6.43,247.31,1.96,0.10
1970-01-01 00:00:26.996,-2.58,9.58,-106.42,-1.49,-0.41,9.66,0.12,-6.43,247.31,1.96,0.04
1970-01-01 00:00:27.079,-1.66,9.60,-105.70,-1.41,-0.14,9.73,-0.04,-6.81,247.31,1.96,0.15
1970-01-01 00:00:27.149,-1.52,9.66,-105.55,-1.71,-0.41,9.73,-0.04,-5.64,247.31,2.20,0.02
1970-01-01 00:00:27.219,-1.28,9.92,-105.35,-1.52,-0.41,9.50,-0.04,-6.51,247.56,1.96,0.05
1970-01-01 00:00:27.286,-0.90,9.79,-105.19,-1.45,-0.11,9.54,-0.04,-6.76,247.31,1.96,0.09
1970-01-01 00:00:27.378,-0.44,10.04,-105.57,-2.18,0.01,10.19,0.24,-4.61,247.31,1.96,-0.32
1970-01-01 00:00:27.567,-0.44,10.04,-105.57,-1.30,0.12,10.54,0.24,-7.74,247.31,1.96,0.56
1970-01-01 00:00:27.640,5.39,10.62,-106.59,-1.60,1.73,10.35,0.24,-6.63,247.31,1.96,0.88
1970-01-01 00:00:27.709,5.39,10.62,-106.59,-1.60,1.73,10.35,0.96,-6.63,247.07,1.96,0.01
1970-01-01 00:00:27.779,9.70,8.97,-108.51,-1.91,4.18,8.43,0.96,-4.71,247.31,1.71,0.60
1970-01-01 00:00:27.849,7.54,6.66,-107.79,-1.71,2.88,9.00,0.96,-3.88,247.07,1.96,-0.44
1970-01-01 00:00:27.919,1.75,3.48,-103.86,-0.88,-0.41,9.66,0.96,-3.98,247.31,1.96,-1.13
1970-01-01 00:00:27.989,-2.80,3.19,-96.60,-1.11,-0.68,6.94,0.96,-2.89,247.31,1.96,-1.53
1970-01-01 00:00:28.059,-2.80,3.19,-96.60,-1.11,-0.68,6.94,-1.11,-2.89,247.31,1.96,1.11
1970-01-01 00:00:28.129,0.51,7.04,-84.21,-1.75,-1.14,8.73,-1.11,-4.01,247.56,1.96,0.48
1970-01-01 00:00:28.195,0.61,12.16,-78.43,-1.75,-1.14,8.73,-1.11,-6.93,247.56,1.96,-1.58
1970-01-01 00:00:28.289,-3.18,15.57,-71.07,-2.37,0.77,8.51,-1.11,-6.58,247.31,1.96,-1.58
1970-01-01 00:00:28.359,-3.96,15.83,-67.16,-1.60,2.08,10.11,-1.11,-9.88,247.31,1.96,-0.57
1970-01-01 00:00:28.429,-4.60,19.40,-59.86,-4.13,0.24,6.59,-1.11,-4.70,247.31,1.96,-0.92
1970-01-01 00:00:28.499,-1.04,25.18,-51.32,-5.97,4.41,1.69,-1.11,-4.22,247.31,1.96,0.49
1970-01-01 00:00:28.569,-1.56,24.88,-47.99,-3.71,-0.61,7.43,-1.11,-6.71,247.31,1.96,-0.58
1970-01-01 00:00:28.639,-1.29,23.85,-46.82,-2.02,0.28,9.00,-1.11,-11.79,247.31,1.96,-0.83
1970-01-01 00:00:28.705,-6.05,25.25,-42.55,-10.22,-6.39,11.31,-1.11,-2.47,247.31,1.96,-1.59
1970-01-01 00:00:28.798,-6.05,25.25,-42.55,0.24,-0.11,12.98,-1.11,105.95,247.31,1.96,-1.55
1970-01-01 00:00:28.866,-6.05,25.25,-42.55,-1.71,-0.64,10.46,-1.11,-14.72,247.31,1.96,-0.52
1970-01-01 00:00:28.938,-6.18,10.46,-30.11,-2.21,-1.49,7.32,-1.11,-4.72,247.31,1.96,0.59
1970-01-01 00:00:29.009,-5.65,6.92,-35.13,-0.76,-0.18,11.11,-1.11,-9.13,247.31,1.96,0.71
1970-01-01 00:00:29.079,-5.16,6.29,-34.99,-1.56,-3.48,10.15,-1.11,-4.02,247.31,1.96,0.23
1970-01-01 00:00:29.149,-3.14,-1.15,-35.19,-1.45,14.10,-3.18,-1.11,0.79,247.31,1.96,-0.22
1970-01-01 00:00:29.219,-5.54,-0.62,-34.10,-0.22,-4.13,12.76,-1.11,2.80,247.31,1.71,2.27
1970-01-01 00:00:29.298,-5.86,-0.55,-34.13,0.08,-0.45,9.39,-1.11,-6.66,247.56,1.96,0.23
1970-01-01 00:00:29.369,-5.76,-0.54,-34.12,0.01,-1.37,10.23,-1.11,0.00,247.31,1.96,0.08
1970-01-01 00:00:29.439,-5.71,-0.56,-34.12,0.05,-0.72,9.62,-1.11,-11.92,247.31,2.20,-0.01
1970-01-01 00:00:29.509,-5.62,-0.60,-34.12,0.01,-1.07,9.93,-1.11,0.00,247.31,1.96,0.01
1970-01-01 00:00:29.579,-5.59,-0.57,-34.12,-0.07,-1.10,9.50,-1.11,8.17,247.31,1.96,0.03
1970-01-01 00:00:29.660,-5.55,-0.57,-34.11,0.01,-1.03,9.80,-1.11,0.00,247.31,1.96,-0.00
1970-01-01 00:00:29.730,-5.59,-0.55,-34.11,0.05,-0.91,9.73,-1.11,-11.63,247.31,1.96,-0.01
1970-01-01 00:00:29.809,-5.41,-0.63,-34.10,0.01,-1.03,9.89,-1.11,0.00,247.31,1.96,0.04
1970-01-01 00:00:29.876,-5.33,-0.65,-34.11,0.05,-1.03,9.81,-1.11,-13.94,247.31,1.96,0.03
1970-01-01 00:00:29.957,-5.22,-0.70,-34.11,0.05,-1.03,9.84,-1.11,-14.94,247.31,1.96,0.01
1970-01-01 00:00:30.025,-5.22,-0.70,-34.11,0.05,-0.95,9.85,-1.11,-14.94,247.31,1.96,0.01
1970-01-01 00:00:30.100,-5.22,-0.70,-34.11,0.05,-0.99,9.84,-1.11,-14.94,247.31,1.96,0.00
1970-01-01 00:00:30.166,-5.22,-0.70,-34.11,0.05,-0.99,9.84,-1.11,-14.94,247.31,1.96,0.01
1970-01-01 00:00:30.240,-4.99,-0.77,-34.12,0.05,-0.95,9.89,-1.11,-16.43,247.31,1.96,0.01
1970-01-01 00:00:30.309,-4.99,-0.77,-34.12,0.05,-0.99,9.88,-1.11,-16.43,247.31,1.96,-0.00
1970-01-01 00:00:30.379,-4.95,-0.76,-34.11,0.05,-0.95,9.85,-1.11,-16.30,247.31,1.96,0.00
1970-01-01 00:00:30.459,-4.93,-0.76,-34.11,0.05,-0.99,9.81,-1.11,-16.17,247.31,1.96,0.00
1970-01-01 00:00:30.558,-4.93,-0.76,-34.11,0.05,-0.99,9.84,0.01,-16.17,247.31,1.96,0.00
1970-01-01 00:00:30.629,-5.02,-0.68,-34.10,0.05,-0.99,9.84,0.01,-14.57,247.31,1.96,0.00
1970-01-01 00:00:30.699,-5.06,-0.65,-34.11,0.05,-0.99,9.84,0.01,-13.93,247.31,1.96,0.00
1970-01-01 00:00:30.780,-5.11,-0.62,-34.10,0.05,-0.99,9.84,0.00,-13.33,247.56,1.96,0.01
1970-01-01 00:00:30.850,-5.17,-0.58,-34.10,0.05,-0.95,9.80,0.00,-12.45,247.31,1.96,-0.00
1970-01-01 00:00:30.920,-5.21,-0.55,-34.10,0.05,-0.95,9.80,0.00,-11.77,247.31,1.96,-0.00
1970-01-01 00:00:30.990,-5.26,-0.52,-34.11,0.05,-0.99,9.84,0.00,-11.14,247.31,1.96,0.00
1970-01-01 00:00:31.060,-5.29,-0.49,-34.11,0.05,-0.99,9.93,0.00,-10.56,247.31,1.96,-0.00
1970-01-01 00:00:31.139,-5.29,-0.49,-34.11,0.05,-0.99,9.77,0.00,-10.56,247.31,1.96,0.01
1970-01-01 00:00:31.220,-5.39,-0.42,-34.11,0.05,-0.99,9.84,0.00,-9.04,247.31,1.96,-0.01
1970-01-01 00:00:31.287,-5.41,-0.41,-34.10,0.05,-0.99,9.81,0.00,-8.83,247.31,2.20,-0.00
1970-01-01 00:00:31.360,-5.43,-0.39,-34.10,0.05,-0.99,9.88,0.00,-8.39,247.31,1.96,0.00
1970-01-01 00:00:31.429,-5.46,-0.37,-34.10,-1.22,-0.18,9.80,0.00,0.31,247.31,1.96,0.00
1970-01-01 00:00:31.500,-5.89,-0.18,-33.80,1.58,-0.45,10.73,0.00,-0.11,247.56,1.96,-0.03
1970-01-01 00:00:31.569,-5.89,-0.18,-33.80,0.12,-0.41,9.42,0.08,-1.50,247.31,1.96,0.15
1970-01-01 00:00:31.659,-5.76,-0.32,-33.02,-2.02,-0.22,10.39,0.39,0.16,247.31,1.96,0.01
1970-01-01 00:00:31.726,-5.76,-0.32,-33.02,0.20,-1.07,10.23,0.40,-1.61,247.31,1.96,0.26
1970-01-01 00:00:31.799,-5.76,-0.32,-33.02,-0.07,-1.26,9.88,0.40,4.55,247.31,1.96,0.26
1970-01-01 00:00:31.866,-5.76,-0.32,-33.02,-0.22,-0.84,9.81,0.40,1.44,247.31,1.96,0.25
1970-01-01 00:00:31.940,-6.95,-0.04,-35.63,0.43,0.62,9.38,0.40,-0.08,247.31,1.96,0.01
1970-01-01 00:00:32.008,-6.95,-0.04,-35.63,0.43,0.62,9.38,-1.32,-0.08,247.31,1.96,1.54
1970-01-01 00:00:32.080,-9.61,0.57,-33.80,-0.03,-2.14,9.39,-1.32,-18.35,247.31,1.96,0.02
1970-01-01 00:00:32.158,-9.74,0.57,-34.19,-0.18,-2.41,10.34,-1.32,-3.12,247.56,1.96,-1.73
1970-01-01 00:00:32.259,-11.46,1.86,-31.81,-0.03,-3.06,9.32,-1.32,-59.38,247.31,1.96,0.66
1970-01-01 00:00:32.338,-9.11,2.41,-31.38,-0.84,0.89,10.34,-1.32,-2.89,247.31,1.96,0.14
1970-01-01 00:00:32.419,-7.67,2.66,-31.95,-0.18,-2.68,9.27,-1.32,-14.47,247.31,1.96,0.34
1970-01-01 00:00:32.487,-7.67,2.66,-31.95,-0.22,-1.07,9.73,-1.32,-11.94,247.31,1.96,-0.13
1970-01-01 00:00:32.560,-7.67,2.66,-31.95,-0.41,-0.99,10.04,-1.32,-6.42,247.31,1.96,-0.61
1970-01-01 00:00:32.627,-8.96,3.17,-32.52,-0.26,-1.33,9.84,-1.32,-12.11,247.31,1.96,-0.32
1970-01-01 00:00:32.709,-9.09,3.35,-32.39,-0.22,-1.95,9.50,-1.32,-15.07,247.31,1.96,-0.12
1970-01-01 00:00:32.776,-9.09,3.35,-32.39,-0.34,-1.26,9.73,-1.32,-9.99,247.31,1.96,-0.05
1970-01-01 00:00:32.850,-9.09,3.35,-32.39,-0.45,-1.95,9.62,-0.23,-7.40,247.31,1.96,0.32
1970-01-01 00:00:32.917,-9.09,3.35,-32.39,-0.49,-1.60,9.62,-0.23,-6.82,247.31,1.96,-0.16
1970-01-01 00:00:32.990,-9.51,3.57,-31.97,-0.61,-0.91,9.81,-0.23,-5.90,247.31,1.96,-0.17
1970-01-01 00:00:33.058,-9.51,3.57,-31.97,-0.61,-0.91,9.81,-0.29,-5.90,247.31,1.96,0.06
1970-01-01 00:00:33.140,-5.99,3.82,-32.93,-0.68,-1.18,9.73,-0.29,-5.58,247.31,1.96,-0.50
1970-01-01 00:00:33.207,-7.58,3.76,-32.56,-0.45,-1.33,9.70,-0.29,-8.29,247.56,1.96,-0.39
1970-01-01 00:00:33.280,-7.36,3.80,-32.75,-0.41,-1.64,9.73,-0.29,-9.17,247.31,2.20,-0.00
1970-01-01 00:00:33.350,-5.06,3.90,-33.71,-0.57,-1.68,9.66,-0.29,-6.89,247.56,1.96,0.43
1970-01-01 00:00:33.420,-3.99,4.01,-35.16,-0.84,-1.18,9.77,-0.29,-4.79,247.31,1.96,0.33
1970-01-01 00:00:33.490,-3.99,4.01,-35.16,0.73,-4.02,9.32,0.05,5.46,247.31,1.96,0.25
1970-01-01 00:00:33.560,-8.27,3.76,-33.96,-0.80,-0.68,10.11,0.05,-4.72,247.31,1.96,-0.83
