Timestamp,CarPitch,CarRoll,CarYaw,LatAccel,Ay,ForwardAccel,LinAccel,RGrad,ShockPot1,ShockPot2,GyX
1970-01-01 00:00:04.213,0.00,0.00,0.00,0.00,0.00,0.00,0.00,0.00,2.69,2.44,0.00
1970-01-01 00:00:04.278,0.00,0.00,0.00,-0.41,0.20,9.73,0.00,0.00,2.69,1.96,0.00
1970-01-01 00:00:04.348,0.00,0.00,0.00,-0.37,0.16,9.85,0.19,0.00,2.69,1.96,-0.02
1970-01-01 00:00:04.414,0.00,0.00,0.00,-0.45,0.20,9.93,-0.01,0.00,2.69,2.20,0.02
1970-01-01 00:00:04.480,0.00,0.00,0.00,-0.37,0.20,9.77,-0.01,0.00,2.69,2.20,0.00
1970-01-01 00:00:04.554,0.00,0.00,0.00,-0.34,0.16,9.89,-0.01,0.00,2.69,1.96,-0.02
1970-01-01 00:00:04.621,0.00,0.00,0.00,-0.37,0.20,9.81,-0.01,0.00,2.44,1.96,-0.05
1970-01-01 00:00:04.704,0.79,2.23,-166.01,-0.34,0.12,9.92,-0.01,-6.63,2.69,1.96,0.03
1970-01-01 00:00:04.770,0.79,2.23,-166.01,-0.34,0.12,9.80,-0.01,-6.63,2.44,1.96,0.02
1970-01-01 00:00:04.835,0.79,2.23,-166.01,-0.34,0.12,10.00,-0.01,-6.63,2.69,2.20,0.02
1970-01-01 00:00:04.905,0.93,2.23,-166.13,-0.34,0.24,9.85,-0.01,-6.63,2.69,2.20,0.01
1970-01-01 00:00:04.975,1.04,2.23,-166.14,-0.37,0.20,9.70,-0.01,-5.96,2.69,1.96,0.02
1970-01-01 00:00:05.044,0.91,2.20,-166.17,-0.53,0.09,9.85,-0.01,-4.17,2.69,1.96,-0.02
1970-01-01 00:00:05.114,-0.46,2.57,-166.12,-0.49,-0.22,9.58,-0.01,-5.23,2.69,2.20,-0.40
1970-01-01 00:00:05.184,-3.66,3.20,-166.07,-0.68,-0.72,9.54,-0.01,-4.68,2.69,2.20,-0.82
1970-01-01 00:00:05.264,-7.12,3.09,-166.06,-0.45,-1.52,10.00,0.23,-6.81,2.69,2.20,0.07
1970-01-01 00:00:05.334,-11.08,1.95,-166.10,-0.18,-1.91,9.70,0.23,-10.61,2.69,1.96,-0.82
1970-01-01 00:00:05.403,-13.00,1.23,-166.12,-0.11,-2.25,9.70,0.23,-11.29,2.69,1.96,-0.51
1970-01-01 00:00:05.475,-13.84,1.52,-166.16,-0.41,-2.33,9.46,0.23,-3.67,2.69,2.20,-0.27
1970-01-01 00:00:05.544,-14.85,1.68,-166.25,-0.18,-2.60,9.77,0.23,-9.15,2.69,1.96,-0.27
1970-01-01 00:00:05.614,-14.85,1.68,-166.25,0.05,-3.25,9.89,-0.17,35.86,2.69,1.96,-0.02
1970-01-01 00:00:05.685,-19.26,0.17,-165.99,-0.14,-3.32,9.28,-0.17,-1.15,2.69,1.96,-0.70
1970-01-01 00:00:05.753,-21.80,-0.23,-165.64,-0.03,-3.48,8.66,-0.17,7.28,2.69,1.96,-0.63
1970-01-01 00:00:05.822,-21.80,-0.23,-165.64,0.08,-4.21,8.66,-0.17,-2.77,2.69,1.96,-1.24
1970-01-01 00:00:05.890,-21.80,-0.23,-165.64,0.70,-5.05,8.74,-0.17,-0.33,2.69,1.96,-0.92
1970-01-01 00:00:05.955,-21.80,-0.23,-165.64,0.62,-5.43,8.43,-0.17,-0.37,2.69,1.96,-0.44
1970-01-01 00:00:06.025,-34.76,-4.05,-165.25,0.54,-5.62,8.31,-0.17,-7.45,2.69,1.96,-0.34
1970-01-01 00:00:06.094,-35.49,-4.30,-165.16,1.00,-5.66,6.94,-0.17,-4.28,2.69,1.96,-0.15
1970-01-01 00:00:06.164,-36.51,-4.41,-165.74,0.50,-5.43,7.71,-0.17,-8.74,2.69,1.96,-0.40
1970-01-01 00:00:06.235,-37.49,-3.70,-166.60,0.12,-5.97,7.82,-0.17,-30.58,2.69,2.20,-0.27
1970-01-01 00:00:06.304,-39.02,-3.24,-166.40,0.47,-6.04,7.71,-0.17,-6.91,2.69,1.96,-0.45
1970-01-01 00:00:06.385,-43.82,-3.40,-164.07,0.27,-6.73,6.48,-0.70,-12.42,2.69,1.96,0.19
1970-01-01 00:00:06.455,-46.93,-2.73,-163.10,0.20,-7.85,7.39,-0.70,-13.72,2.69,1.96,-1.11
1970-01-01 00:00:06.523,-49.83,0.27,-163.13,-0.14,-8.19,6.40,-0.70,-1.87,2.69,1.96,-0.67
1970-01-01 00:00:06.604,-53.54,2.68,-164.07,-0.22,-7.30,5.82,-0.70,-12.05,2.69,1.96,-0.84
1970-01-01 00:00:06.675,-55.08,2.15,-163.79,-0.37,-8.34,5.75,-0.70,-5.74,2.69,1.96,-0.61
1970-01-01 00:00:06.754,-56.65,1.15,-163.11,-0.18,-8.07,5.40,-0.70,-6.24,2.69,1.96,-0.19
1970-01-01 00:00:06.824,-58.01,0.97,-163.65,0.01,-7.93,4.29,-0.70,0.00,2.69,1.96,-0.44
1970-01-01 00:00:06.895,-61.27,0.46,-163.55,0.16,-7.96,4.10,-0.70,2.85,2.69,1.96,-0.69
1970-01-01 00:00:06.965,-69.30,-0.14,-162.99,0.43,-8.11,-2.11,-0.70,-0.32,2.69,1.96,-1.97
1970-01-01 00:00:07.035,-81.19,-2.64,-161.69,0.08,-10.30,2.03,-0.70,-32.17,2.69,1.96,-3.37
1970-01-01 00:00:07.105,-88.62,-2.06,-163.31,0.12,-9.72,-0.23,-0.70,-16.99,2.69,2.20,-2.02
1970-01-01 00:00:07.215,-91.90,-0.55,-163.12,0.05,-9.57,-0.50,-0.31,-11.71,2.69,1.96,0.03
1970-01-01 00:00:07.284,-93.91,0.51,-163.06,-0.07,-7.58,-1.80,-0.31,-7.21,2.69,2.20,-0.47
1970-01-01 00:00:07.365,-95.67,1.04,-162.45,-0.03,-9.41,-1.41,-0.52,-33.36,2.69,1.96,0.05
1970-01-01 00:00:07.435,-96.52,0.45,-157.92,0.05,-9.57,0.27,-0.52,9.62,2.69,1.96,-0.06
1970-01-01 00:00:07.505,-96.97,-0.80,-156.37,0.08,-9.80,-1.15,-0.52,-9.73,2.69,1.96,-0.04
1970-01-01 00:00:07.575,-98.92,-0.97,-157.06,0.12,-9.99,-1.53,-0.52,-7.97,2.69,2.20,-0.42
1970-01-01 00:00:07.645,-102.21,-0.55,-158.16,0.01,-9.26,-2.53,-0.52,0.00,2.69,2.20,-0.74
1970-01-01 00:00:07.715,-106.83,0.25,-159.38,0.20,-8.77,-2.91,-0.52,1.26,2.69,2.20,-1.14
1970-01-01 00:00:07.783,-109.09,0.77,-160.11,-0.26,-9.11,-3.52,-0.52,-2.93,2.69,2.20,-0.16
1970-01-01 00:00:07.865,-109.85,1.56,-159.80,-0.14,-8.43,-3.14,0.11,-10.77,2.69,2.20,0.12
1970-01-01 00:00:07.935,-110.92,2.35,-160.42,-0.37,-8.61,-4.33,0.11,-6.26,2.69,1.96,-0.43
1970-01-01 00:00:08.005,-112.55,1.75,-161.51,0.01,-8.57,-4.33,0.11,0.00,2.69,1.96,-0.56
1970-01-01 00:00:08.075,-112.89,1.36,-160.25,-0.30,-8.69,-3.87,0.11,-4.52,2.69,1.96,-0.04
1970-01-01 00:00:08.145,-113.01,1.13,-159.38,-0.11,-8.42,-4.82,0.11,-10.37,2.69,1.96,0.08
1970-01-01 00:00:08.211,-115.46,1.10,-155.94,0.01,-9.34,-4.06,0.11,0.00,2.69,1.96,-0.65
1970-01-01 00:00:08.286,-115.46,1.10,-155.94,-0.30,-7.65,-5.63,-0.64,-3.67,2.69,2.20,0.01
1970-01-01 00:00:08.352,-125.16,2.99,-152.64,-0.53,-7.62,-5.59,-0.64,-5.66,2.69,1.96,-1.30
1970-01-01 00:00:08.445,-131.93,4.91,-151.73,-0.80,-6.78,-6.24,0.50,-6.16,2.69,2.20,-1.01
1970-01-01 00:00:08.514,-133.35,5.91,-152.09,-0.88,-6.43,-6.93,0.50,-6.75,2.69,2.20,-0.17
1970-01-01 00:00:08.595,-139.16,7.53,-152.38,-1.52,-5.62,-7.47,-1.01,-4.94,2.69,1.96,-0.19
1970-01-01 00:00:08.661,-139.16,7.53,-152.38,-1.37,-5.93,-7.20,-1.01,-5.49,2.69,1.96,-1.07
1970-01-01 00:00:08.725,-139.16,7.53,-152.38,-1.37,-4.89,-6.97,-1.01,-5.49,2.69,1.96,-1.06
1970-01-01 00:00:08.795,-150.75,9.75,-152.64,-1.45,-3.90,-8.34,-1.01,-6.72,2.69,1.96,-0.98
1970-01-01 00:00:08.865,-154.94,9.63,-153.20,-1.11,-3.02,-8.20,-1.01,-8.71,2.69,1.96,-1.08
1970-01-01 00:00:08.936,-160.61,9.78,-154.43,-1.98,-1.83,-10.27,-0.66,-4.93,2.69,2.20,-0.33
1970-01-01 00:00:09.005,-167.60,8.94,-156.34,-1.26,-1.07,-9.57,-0.66,-7.11,2.69,1.96,-1.59
1970-01-01 00:00:09.086,-173.65,7.84,-158.36,-0.22,0.16,-9.11,0.97,-35.23,2.69,1.96,0.99
1970-01-01 00:00:09.153,178.77,4.53,-160.37,-0.84,1.00,-10.19,0.97,-5.42,2.69,2.20,-1.64
1970-01-01 00:00:09.220,178.77,4.53,-160.37,-0.22,1.46,-9.31,0.97,-20.34,2.69,1.96,-1.56
1970-01-01 00:00:09.293,165.42,0.63,-162.43,-0.11,2.73,-9.43,-0.13,-5.78,2.69,2.20,-0.03
1970-01-01 00:00:09.376,157.77,-1.12,-163.03,0.31,4.30,-8.70,-0.13,-3.57,2.69,1.96,-0.03
1970-01-01 00:00:09.456,157.77,-1.12,-163.03,0.96,4.64,-7.89,0.04,-1.16,2.69,1.96,0.07
1970-01-01 00:00:09.524,146.50,-3.31,-164.20,0.50,6.14,-8.00,0.04,-6.56,2.69,2.20,-1.39
1970-01-01 00:00:09.597,142.02,-4.21,-165.09,1.08,6.48,-6.89,0.04,-3.91,2.69,1.96,-1.03
1970-01-01 00:00:09.663,138.32,-5.00,-165.82,1.08,6.48,-6.89,0.04,-4.64,2.69,1.96,-0.77
1970-01-01 00:00:09.744,134.35,-3.24,-167.40,0.24,7.40,-7.16,0.04,-13.58,2.69,1.96,-0.78
1970-01-01 00:00:09.816,131.09,-3.29,-167.07,0.58,8.02,-6.13,0.23,-5.66,2.44,2.20,0.74
1970-01-01 00:00:09.884,127.12,-3.14,-165.42,-0.22,8.05,-6.66,0.23,14.11,2.69,2.20,-0.77
1970-01-01 00:00:09.966,122.38,-4.04,-164.66,0.35,8.71,-5.17,-0.63,-11.50,2.69,1.96,-0.59
1970-01-01 00:00:10.031,122.38,-4.04,-164.66,0.96,8.43,-4.25,-0.63,-4.19,2.69,1.96,-1.35
1970-01-01 00:00:10.127,107.89,-7.29,-164.05,1.20,9.31,-2.60,0.21,-6.10,2.69,1.96,0.40
1970-01-01 00:00:10.195,102.99,-7.37,-164.57,1.00,9.24,-1.30,0.21,-7.34,2.69,2.20,-1.48
1970-01-01 00:00:10.273,96.81,-8.21,-163.81,1.81,10.08,-0.99,-0.23,-4.54,2.69,1.96,0.35
1970-01-01 00:00:10.346,90.67,-8.99,-162.55,1.81,9.70,-0.11,-0.23,-4.97,2.69,2.20,-1.20
1970-01-01 00:00:10.416,87.83,-9.08,-162.43,1.20,9.59,0.54,-0.23,-7.59,2.69,1.96,-0.87
1970-01-01 00:00:10.486,82.62,-9.52,-161.10,1.85,10.92,1.65,-0.38,-5.15,2.69,1.96,0.12
1970-01-01 00:00:10.556,79.63,-8.15,-160.29,1.16,9.51,1.92,-0.38,-7.04,2.69,1.96,-0.73
1970-01-01 00:00:10.625,77.25,-6.11,-160.39,1.04,9.17,1.50,-0.38,-5.86,2.69,2.20,-0.45
1970-01-01 00:00:10.706,77.25,-6.11,-160.39,0.66,8.63,3.49,-0.09,-9.26,2.69,1.96,-0.46
1970-01-01 00:00:10.772,62.42,-5.40,-162.61,0.89,8.43,3.95,-0.09,-6.09,2.69,1.96,-1.68
1970-01-01 00:00:10.846,62.42,-5.40,-162.61,0.93,7.79,6.17,0.25,-5.83,2.69,1.96,0.17
1970-01-01 00:00:10.916,48.51,-4.60,-164.39,0.73,6.83,7.01,0.25,-6.27,2.69,2.20,-1.64
1970-01-01 00:00:10.983,42.08,-4.06,-164.74,0.73,6.83,7.01,0.25,-5.52,2.69,1.96,-1.47
1970-01-01 00:00:11.076,35.04,-3.11,-163.64,0.12,5.45,7.36,-0.70,-25.68,2.44,2.20,-0.47
1970-01-01 00:00:11.145,31.55,-3.43,-163.84,0.62,4.68,8.43,-0.70,-5.52,2.69,2.20,-0.99
1970-01-01 00:00:11.226,25.65,-5.73,-164.73,1.31,4.68,9.89,1.05,-4.38,2.69,1.96,0.32
1970-01-01 00:00:11.293,25.65,-5.73,-164.73,0.58,3.46,9.16,1.05,-9.85,2.69,1.96,-0.74
1970-01-01 00:00:11.366,18.95,-3.62,-163.59,0.77,3.57,9.35,1.05,-4.68,2.69,1.96,-0.64
1970-01-01 00:00:11.466,15.97,-1.86,-163.60,-0.11,2.19,8.66,-0.73,17.01,2.69,1.96,-0.35
1970-01-01 00:00:11.545,14.68,-1.89,-163.33,0.12,1.92,10.00,0.45,-15.61,2.69,1.96,-0.11
1970-01-01 00:00:11.616,11.60,-1.89,-162.95,0.05,1.77,9.04,0.45,-40.25,2.69,1.96,-0.73
1970-01-01 00:00:11.696,9.43,-2.96,-162.36,0.50,1.58,10.31,0.45,-5.88,2.69,2.20,-0.48
1970-01-01 00:00:11.762,9.43,-2.96,-162.36,0.50,1.35,9.96,0.45,-5.88,2.69,1.96,-0.65
1970-01-01 00:00:11.837,4.16,-2.67,-161.69,0.85,0.50,11.45,1.53,-3.14,2.69,2.20,0.06
1970-01-01 00:00:11.905,1.80,-1.04,-161.84,0.05,0.35,9.04,1.53,-22.17,2.69,1.96,-0.62
1970-01-01 00:00:11.986,0.15,-0.24,-161.89,-0.14,-1.03,9.62,1.53,1.68,2.69,1.96,-0.39
1970-01-01 00:00:12.052,0.15,-0.24,-161.89,0.16,-1.14,10.73,1.53,-1.52,2.69,2.20,-1.54
1970-01-01 00:00:12.114,0.15,-0.24,-161.89,-0.26,-1.95,9.46,1.53,0.93,2.69,1.96,-0.87
1970-01-01 00:00:12.196,-10.75,-2.29,-162.07,0.31,-1.79,9.50,1.53,-7.33,2.69,1.96,-0.53
1970-01-01 00:00:12.266,-10.23,-2.70,-162.37,0.20,-1.26,9.04,1.53,-13.53,2.44,2.20,0.04
1970-01-01 00:00:12.335,-8.70,-3.37,-163.15,0.50,-1.52,10.50,1.53,-6.68,2.69,2.20,0.37
1970-01-01 00:00:12.405,-7.26,-3.12,-163.82,0.58,-1.10,10.08,1.53,-5.35,2.69,2.20,0.29
1970-01-01 00:00:12.477,-5.50,-3.06,-164.23,0.31,-1.07,9.27,1.53,-9.78,2.69,1.96,0.55
1970-01-01 00:00:12.547,-5.45,-3.33,-164.16,0.47,-1.07,10.19,1.53,-7.10,2.69,1.96,-0.00
1970-01-01 00:00:12.617,-5.39,-3.39,-164.02,0.47,-0.95,10.00,1.53,-7.22,2.69,1.96,0.04
1970-01-01 00:00:12.686,-5.02,-3.14,-163.98,0.54,-0.99,9.77,1.53,-5.78,2.69,1.96,0.04
1970-01-01 00:00:12.774,-3.44,-2.28,-164.00,0.01,-0.61,8.27,1.53,0.00,2.69,1.96,0.46
1970-01-01 00:00:12.845,-3.44,-2.28,-164.00,0.31,0.01,9.08,1.53,-7.29,2.44,1.96,0.06
1970-01-01 00:00:12.916,-2.87,-1.79,-163.88,0.20,-0.34,9.62,1.53,-8.99,2.69,1.96,0.04
1970-01-01 00:00:12.986,-3.44,-1.68,-163.67,0.24,-0.64,9.73,1.53,-7.04,2.69,1.96,-0.19
1970-01-01 00:00:13.057,-3.68,-1.91,-163.46,0.24,-0.88,10.15,1.53,-8.02,2.69,1.96,-0.08
1970-01-01 00:00:13.226,-3.68,-1.91,-163.46,0.27,-0.49,9.84,-0.11,-6.99,2.69,1.96,-0.13
1970-01-01 00:00:13.664,-3.68,-1.91,-163.46,0.47,-0.53,9.92,-0.11,-4.08,2.69,1.96,0.12
1970-01-01 00:00:14.094,-3.68,-1.91,-163.46,0.43,-0.53,9.77,-0.11,-4.45,2.69,1.96,-0.03
1970-01-01 00:00:14.474,-3.68,-1.91,-163.46,0.43,-0.53,9.77,-0.03,-4.45,2.69,1.96,-0.02
1970-01-01 00:00:14.546,-3.68,-1.91,-163.46,0.39,-0.61,9.80,-0.03,-4.89,2.69,2.20,0.01
1970-01-01 00:00:14.613,-3.68,-1.91,-163.46,0.35,-0.64,9.85,-0.03,-5.44,2.69,1.96,-0.04
1970-01-01 00:00:14.687,-2.92,-2.10,-163.61,0.39,-0.45,9.84,-0.03,-5.36,2.69,1.96,0.03
1970-01-01 00:00:14.753,-2.91,-2.02,-163.62,0.31,-0.57,9.88,-0.03,-6.46,2.69,2.20,0.00
1970-01-01 00:00:14.828,-2.98,-2.02,-163.64,0.31,-0.53,9.85,-0.03,-6.46,2.69,1.96,-0.03
1970-01-01 00:00:14.894,-2.98,-2.02,-163.64,0.31,-0.53,9.85,-0.11,-6.46,2.69,2.20,-0.06
1970-01-01 00:00:14.968,-2.79,-1.97,-163.66,0.31,-0.53,9.96,-0.11,-6.32,2.69,2.20,0.01
1970-01-01 00:00:15.035,-2.79,-1.97,-163.66,0.31,-0.53,9.96,-0.34,-6.32,2.69,2.44,-0.07
1970-01-01 00:00:15.106,-2.50,-1.83,-163.65,0.27,-0.41,9.84,-0.34,-6.70,2.69,2.20,0.00
1970-01-01 00:00:15.176,-2.61,-1.93,-163.61,0.47,-0.41,9.96,-0.34,-4.11,2.69,2.20,-0.04
1970-01-01 00:00:15.245,-2.48,-1.88,-163.60,0.31,-0.30,9.66,-0.34,-6.01,2.69,1.96,0.02
1970-01-01 00:00:15.317,-2.45,-1.80,-163.60,0.31,-0.37,9.89,-0.34,-5.75,2.69,2.20,-0.04
1970-01-01 00:00:15.386,-2.34,-1.71,-163.59,0.27,-0.41,10.00,-0.34,-6.26,2.93,2.20,0.06
1970-01-01 00:00:15.467,-2.33,-1.74,-163.59,0.31,-0.41,9.96,0.12,-5.55,2.69,2.20,0.02
1970-01-01 00:00:15.547,-2.29,-1.68,-163.60,0.31,-0.37,9.77,0.12,-5.39,2.69,1.96,0.00
1970-01-01 00:00:15.617,-2.30,-1.77,-163.62,0.24,-0.34,9.80,0.12,-7.42,2.69,2.20,0.00
1970-01-01 00:00:15.687,-2.36,-1.80,-163.61,0.31,-0.41,9.92,0.12,-5.74,2.69,1.96,0.00
1970-01-01 00:00:15.757,-2.24,-1.84,-163.62,0.31,-0.41,9.92,0.12,-5.89,2.69,1.96,0.09
1970-01-01 00:00:15.827,-2.18,-1.93,-163.61,0.35,-0.26,9.81,0.12,-5.50,2.69,2.20,0.07
1970-01-01 00:00:15.907,-2.14,-1.76,-163.60,0.27,-0.37,10.00,0.12,-6.42,2.69,1.96,-0.01
1970-01-01 00:00:15.987,-2.06,-1.72,-163.61,0.31,-0.37,9.89,0.12,-5.52,2.69,1.96,-0.02
1970-01-01 00:00:16.054,-2.06,-1.72,-163.61,0.31,-0.30,10.00,0.12,-5.52,2.69,2.20,0.00
1970-01-01 00:00:16.147,-1.97,-1.95,-163.58,0.35,-0.34,9.85,-0.07,-5.54,2.69,2.20,0.06
1970-01-01 00:00:16.217,-1.88,-1.90,-163.56,0.20,-0.37,9.96,-0.07,-9.53,2.69,1.96,0.04
1970-01-01 00:00:16.288,-1.85,-1.73,-163.60,0.39,-0.30,9.96,-0.07,-4.44,2.69,2.20,-0.01
1970-01-01 00:00:16.357,-1.85,-1.73,-163.60,0.27,-0.22,9.77,-0.01,-6.34,2.69,2.20,0.10
1970-01-01 00:00:16.437,-1.70,-1.97,-163.59,0.31,-0.22,9.84,-0.01,-6.32,2.69,2.20,0.02
1970-01-01 00:00:16.508,-1.70,-2.07,-163.59,0.35,-0.34,9.89,-0.01,-5.88,2.69,1.96,0.03
1970-01-01 00:00:16.618,-1.76,-2.21,-163.59,0.31,-0.34,9.89,0.05,-7.08,2.69,1.96,-0.05
1970-01-01 00:00:16.686,-1.74,-2.19,-163.59,0.35,-0.30,9.89,0.05,-6.22,2.69,2.20,0.01
1970-01-01 00:00:16.757,-1.76,-2.13,-163.61,0.39,-0.37,9.96,0.05,-5.47,2.69,1.96,-0.04
1970-01-01 00:00:16.836,-1.63,-2.12,-163.58,0.35,-0.34,10.04,0.05,-6.03,2.69,1.96,0.02
1970-01-01 00:00:16.907,-1.36,-2.06,-163.60,0.43,-0.07,9.92,0.05,-4.79,2.69,1.96,0.07
1970-01-01 00:00:16.977,-0.28,-1.93,-163.65,0.39,-0.03,10.38,0.05,-4.94,2.69,1.96,0.26
1970-01-01 00:00:17.047,2.54,-1.99,-163.76,0.39,0.70,9.93,0.05,-5.09,2.44,2.20,0.74
1970-01-01 00:00:17.117,4.71,-1.75,-163.81,0.27,0.93,9.62,0.05,-6.41,2.69,2.20,0.47
1970-01-01 00:00:17.207,7.46,-1.13,-163.64,0.12,1.20,10.15,0.05,-9.33,2.69,2.20,0.50
1970-01-01 00:00:17.278,8.82,-0.92,-163.53,0.08,1.54,10.04,0.05,-11.19,2.69,2.20,0.39
1970-01-01 00:00:17.347,11.41,-0.81,-163.42,0.05,1.96,10.42,0.05,-17.25,2.69,2.20,0.72
1970-01-01 00:00:17.417,15.60,-0.62,-163.12,0.31,3.15,9.28,0.05,-1.97,2.69,2.20,0.87
1970-01-01 00:00:17.497,27.10,-0.11,-162.33,0.08,4.53,8.78,0.05,-1.39,2.69,1.96,2.03
1970-01-01 00:00:17.563,27.10,-0.11,-162.33,-0.03,5.14,8.27,0.05,3.64,2.69,1.96,2.08
1970-01-01 00:00:17.628,41.63,-0.62,-162.74,0.05,5.87,7.47,0.05,-13.19,2.69,1.96,2.27
1970-01-01 00:00:17.694,50.74,-1.34,-163.74,0.05,5.87,7.47,0.05,-28.64,2.69,1.96,2.97
1970-01-01 00:00:17.758,50.74,-1.34,-163.74,0.05,5.87,7.47,0.05,-28.64,2.69,1.96,2.96
1970-01-01 00:00:17.823,50.74,-1.34,-163.74,0.20,8.93,2.26,-0.75,-6.74,2.69,1.96,-0.11
1970-01-01 00:00:17.896,50.74,-1.34,-163.74,0.39,9.89,0.31,-0.75,-3.44,2.44,1.96,0.83
1970-01-01 00:00:17.963,50.74,-1.34,-163.74,0.58,9.89,2.61,-0.75,-2.31,2.69,1.96,-0.39
1970-01-01 00:00:18.038,76.24,-1.65,-167.38,0.16,9.62,2.19,-0.75,-10.32,2.69,2.20,-0.33
1970-01-01 00:00:18.108,76.18,-0.83,-167.04,0.05,9.39,2.41,-0.75,-17.69,2.69,2.20,0.10
1970-01-01 00:00:18.178,75.64,-0.44,-166.86,0.27,9.55,2.64,-0.75,-1.62,2.69,2.20,-0.13
1970-01-01 00:00:18.248,74.94,-0.34,-166.93,0.05,9.70,2.41,-0.75,-7.24,2.69,1.96,-0.24
1970-01-01 00:00:18.327,74.68,-0.15,-166.90,0.16,9.62,2.26,-0.75,-0.97,2.69,1.96,-0.01
1970-01-01 00:00:18.396,73.76,0.08,-166.89,0.89,10.31,3.37,-0.75,0.09,2.69,1.96,-0.28
1970-01-01 00:00:18.488,71.38,3.05,-166.05,-1.11,8.29,2.87,0.05,-2.76,2.69,1.96,-0.23
1970-01-01 00:00:18.557,70.35,3.93,-165.66,-0.80,8.63,3.79,0.05,-4.93,2.69,1.96,-0.39
1970-01-01 00:00:18.628,70.88,2.10,-165.87,-0.11,9.74,3.22,0.05,-19.22,2.69,1.96,0.17
1970-01-01 00:00:18.698,71.35,1.12,-165.97,0.08,9.55,3.26,0.05,13.71,2.69,1.96,0.10
1970-01-01 00:00:18.788,71.35,1.12,-165.97,-0.07,8.89,3.34,0.13,-16.00,2.69,1.96,0.00
1970-01-01 00:00:18.908,71.35,1.12,-165.97,0.39,9.77,2.91,-0.04,2.88,2.69,1.96,0.14
1970-01-01 00:00:18.976,71.35,1.12,-165.97,0.66,9.66,2.15,-0.70,1.70,2.69,1.96,0.42
1970-01-01 00:00:19.044,71.35,1.12,-165.97,0.20,9.21,3.26,-0.70,5.65,2.69,2.20,-0.04
1970-01-01 00:00:19.117,72.51,-1.98,-165.54,0.39,9.21,3.14,-0.70,-5.06,2.69,1.96,0.00
1970-01-01 00:00:19.188,72.53,-2.07,-165.50,0.39,9.17,3.14,-0.70,-5.30,2.69,1.96,0.00
1970-01-01 00:00:19.255,72.53,-2.07,-165.50,0.39,9.17,3.14,-0.11,-5.30,2.69,1.96,0.08
1970-01-01 00:00:19.338,72.99,-2.02,-164.99,0.43,9.28,3.11,-0.11,-4.71,2.69,1.96,-0.03
1970-01-01 00:00:19.405,73.51,-1.59,-164.48,0.62,9.82,3.68,-0.11,-2.56,2.69,1.96,0.01
1970-01-01 00:00:19.479,74.55,-0.57,-163.77,0.08,9.39,2.49,-0.11,-6.98,2.69,1.96,0.26
1970-01-01 00:00:19.546,74.55,-0.57,-163.77,0.08,9.39,2.49,-0.47,-6.98,2.69,1.96,-0.08
1970-01-01 00:00:19.618,75.19,-0.02,-163.37,0.01,9.62,2.26,-0.47,0.00,2.44,1.96,-0.03
1970-01-01 00:00:19.688,75.19,-0.02,-163.37,0.01,9.62,2.26,0.42,0.00,2.69,1.96,0.09
1970-01-01 00:00:19.768,76.41,0.89,-164.25,-0.03,9.70,2.07,0.42,-28.39,2.69,1.96,0.24
1970-01-01 00:00:19.838,76.83,1.44,-164.25,-0.34,9.39,2.19,0.42,-4.30,2.44,2.20,0.19
1970-01-01 00:00:19.908,76.44,1.92,-164.61,-0.14,9.51,2.80,0.42,-13.29,2.69,1.96,-0.11
1970-01-01 00:00:19.976,76.44,1.92,-164.61,-0.14,9.51,2.80,-0.22,-13.29,2.69,2.20,0.20
1970-01-01 00:00:20.048,76.11,2.20,-164.44,-0.49,9.89,2.19,-0.22,-4.47,2.93,1.96,-0.02
1970-01-01 00:00:20.118,76.36,3.03,-164.39,0.39,10.73,1.61,-0.22,7.75,2.69,1.96,0.09
1970-01-01 00:00:20.198,73.80,5.15,-165.15,-0.99,9.55,3.72,-0.22,-5.21,2.44,1.96,-0.80
1970-01-01 00:00:20.266,73.80,5.15,-165.15,-0.99,9.55,3.72,-0.98,-5.21,2.69,1.96,-0.63
1970-01-01 00:00:20.338,74.00,9.54,-164.40,-1.56,9.05,2.80,-0.98,-6.10,2.69,1.96,-0.02
1970-01-01 00:00:20.407,74.00,9.54,-164.40,-1.56,9.05,2.80,0.16,-6.10,2.69,1.96,0.21
1970-01-01 00:00:20.488,75.28,11.82,-166.18,-1.68,9.66,2.26,0.30,-7.04,2.69,1.96,0.61
1970-01-01 00:00:20.558,76.48,13.90,-166.60,-2.37,9.23,2.15,0.30,-5.87,2.69,1.96,0.53
1970-01-01 00:00:20.629,77.10,16.76,-166.62,-2.79,8.75,2.45,0.30,-6.01,2.69,1.96,0.13
1970-01-01 00:00:20.695,77.10,16.76,-166.62,-2.79,8.75,2.45,0.31,-6.01,2.69,1.96,-0.05
1970-01-01 00:00:20.778,80.21,24.42,-168.38,-3.63,9.09,1.19,-0.68,-6.72,2.69,2.20,0.02
1970-01-01 00:00:20.845,80.21,24.42,-168.38,-3.63,9.09,1.19,0.16,-6.72,2.69,1.96,0.69
1970-01-01 00:00:20.918,80.24,30.01,-169.96,-4.86,8.25,1.38,0.16,-6.17,2.69,2.20,0.17
1970-01-01 00:00:20.988,80.24,30.01,-169.96,-5.89,8.05,1.00,-0.14,-5.09,2.69,1.96,0.39
1970-01-01 00:00:21.058,85.46,36.48,-169.60,-5.62,8.13,-1.15,-0.14,-6.49,2.44,1.96,0.60
1970-01-01 00:00:21.129,83.69,39.27,-171.19,-6.46,7.40,0.58,-0.14,-6.07,2.69,1.96,-0.18
1970-01-01 00:00:21.198,79.69,43.43,-173.18,-6.96,6.48,1.57,-0.14,-6.24,2.69,2.20,-0.83
1970-01-01 00:00:21.268,79.69,43.43,-173.18,-7.16,6.41,2.61,-0.15,-6.07,2.69,2.20,-0.55
1970-01-01 00:00:21.338,71.84,48.20,178.84,-7.20,6.63,2.22,-0.15,-6.69,2.69,1.96,-0.24
1970-01-01 00:00:21.417,69.98,50.00,177.08,-6.92,6.25,2.49,0.27,-7.22,2.69,1.96,0.49
1970-01-01 00:00:21.498,69.98,50.00,177.08,-7.35,6.21,2.76,0.35,-6.81,2.69,2.44,0.59
1970-01-01 00:00:21.566,72.07,56.29,179.29,-7.35,6.21,2.76,0.35,-7.66,2.69,1.96,0.24
1970-01-01 00:00:21.647,71.45,60.13,177.25,-7.80,5.06,1.15,0.35,-7.70,2.69,1.96,0.15
1970-01-01 00:00:21.719,70.78,61.93,176.23,-8.27,4.14,1.61,0.35,-7.49,2.69,1.96,0.08
1970-01-01 00:00:21.786,73.22,66.04,178.08,-8.45,3.87,1.77,0.35,-7.81,2.69,1.96,0.17
1970-01-01 00:00:21.858,76.75,70.27,179.76,-9.57,3.04,0.77,0.35,-7.34,2.69,1.96,0.54
1970-01-01 00:00:21.928,72.57,73.79,174.46,-9.61,0.81,3.79,0.35,-7.68,2.69,2.20,0.28
1970-01-01 00:00:21.998,69.82,76.14,172.92,-9.07,2.50,0.65,0.35,-8.39,2.69,2.20,-0.77
1970-01-01 00:00:22.068,61.75,78.30,165.02,-9.64,1.54,1.34,0.35,-8.12,2.69,1.96,-0.04
1970-01-01 00:00:22.149,48.44,80.59,152.55,-9.64,1.43,1.07,0.35,-8.36,2.69,1.96,-0.15
1970-01-01 00:00:22.217,40.02,81.52,144.47,-9.64,1.08,0.58,0.35,-8.46,2.69,1.96,-0.13
1970-01-01 00:00:22.288,23.82,80.47,126.57,-9.95,0.62,2.15,0.35,-8.09,2.69,2.20,0.29
1970-01-01 00:00:22.390,-10.67,78.28,89.33,-8.96,-0.41,2.38,0.33,-8.74,2.69,1.96,0.53
1970-01-01 00:00:22.458,-10.67,78.28,89.33,-8.96,-0.41,2.38,0.33,-8.74,2.69,2.20,-0.43
1970-01-01 00:00:22.529,-36.04,74.11,65.53,-8.96,-1.83,2.22,0.33,-8.27,2.69,2.20,-0.63
1970-01-01 00:00:22.609,-39.69,70.59,61.90,-8.73,-2.02,3.26,0.49,-8.09,2.69,1.96,0.41
1970-01-01 00:00:22.688,-42.89,70.22,58.19,-9.04,-2.02,2.49,0.49,-7.77,2.69,2.20,-0.00
1970-01-01 00:00:22.789,-44.26,71.42,56.96,-9.34,-1.64,2.26,-0.28,-7.65,2.69,1.96,-0.12
1970-01-01 00:00:22.859,-48.82,71.46,52.72,-8.43,-1.95,2.38,-0.28,-8.48,2.69,2.20,-0.09
1970-01-01 00:00:22.928,-48.82,71.46,52.72,-8.45,-3.82,2.45,-0.11,-8.45,2.69,1.96,0.31
1970-01-01 00:00:23.018,-60.42,65.99,43.72,-8.15,-3.17,1.96,-0.11,-8.09,2.69,1.96,-0.14
1970-01-01 00:00:23.085,-60.42,65.99,43.72,-7.84,-3.55,1.99,-0.11,-8.41,2.69,2.20,-0.01
1970-01-01 00:00:23.188,-68.34,57.53,35.39,-7.88,-5.09,2.99,-0.11,-7.30,2.69,2.20,-0.16
1970-01-01 00:00:23.259,-71.12,55.32,32.91,-6.96,-5.32,1.77,-0.11,-7.94,2.69,2.20,-0.10
1970-01-01 00:00:23.328,-76.70,52.67,27.90,-7.27,-5.89,1.57,-0.11,-7.25,2.69,1.96,-0.49
1970-01-01 00:00:23.399,-74.86,48.36,28.06,-6.12,-5.89,2.41,-0.11,-7.90,2.69,1.96,0.76
1970-01-01 00:00:23.489,-71.79,41.65,28.54,-6.12,-7.12,2.80,0.52,-6.80,2.69,2.20,0.25
1970-01-01 00:00:23.555,-71.79,41.65,28.54,-5.59,-7.00,2.64,0.29,-7.46,2.69,1.96,0.51
1970-01-01 00:00:23.629,-71.79,41.65,28.54,-5.01,-7.34,2.80,0.29,-8.31,2.69,2.20,-0.23
1970-01-01 00:00:23.719,-78.98,31.94,21.03,-4.78,-8.57,2.07,-0.15,-6.68,2.69,1.96,-0.63
1970-01-01 00:00:23.790,-80.18,29.85,20.28,-4.13,-8.57,1.96,-0.15,-7.23,2.69,1.96,-0.43
1970-01-01 00:00:23.869,-83.67,25.09,16.90,-3.82,-9.34,1.07,-0.15,-6.56,2.69,1.96,-0.41
1970-01-01 00:00:23.939,-84.82,23.12,15.96,-3.59,-8.84,1.27,-0.15,-6.43,2.44,1.96,-0.32
1970-01-01 00:00:24.009,-85.66,20.80,15.11,-2.48,-8.57,0.88,-0.15,-8.37,2.69,2.20,-0.12
1970-01-01 00:00:24.089,-85.40,17.71,15.13,-1.14,-8.49,1.04,0.34,-15.53,2.69,1.96,1.30
1970-01-01 00:00:24.159,-82.90,12.08,13.96,0.05,-8.31,1.61,0.34,257.64,2.69,2.20,-0.14
1970-01-01 00:00:24.229,-82.90,12.08,13.96,-0.49,-10.48,0.96,-1.60,-24.54,2.69,1.96,0.78
1970-01-01 00:00:24.299,-87.05,-0.60,8.78,0.73,-9.84,-0.38,-1.60,-0.82,2.44,1.96,-0.20
1970-01-01 00:00:24.379,-89.25,-9.50,7.97,2.23,-9.80,1.69,-0.79,-4.26,2.69,1.96,0.08
1970-01-01 00:00:24.449,-89.25,-9.50,7.97,2.80,-10.68,-3.02,1.53,-3.39,2.69,1.96,0.73
1970-01-01 00:00:24.519,-93.64,-19.15,7.09,4.80,-9.99,4.02,1.53,-3.99,2.69,1.96,-0.39
1970-01-01 00:00:24.589,-93.64,-19.15,7.09,4.80,-9.99,4.02,-1.32,-3.99,2.69,2.20,-0.59
1970-01-01 00:00:24.659,-95.59,-23.34,9.04,4.53,-9.22,-0.07,-1.32,-5.16,2.69,2.20,-0.42
1970-01-01 00:00:24.729,-95.59,-23.34,9.04,4.64,-8.77,0.12,1.39,-5.03,2.69,1.96,1.04
1970-01-01 00:00:24.809,-101.10,-28.26,14.61,5.48,-8.27,-0.34,1.01,-5.15,2.69,2.20,0.85
1970-01-01 00:00:24.878,-101.10,-28.26,14.61,5.48,-8.27,-0.34,-0.46,-5.15,2.69,1.96,-0.10
1970-01-01 00:00:24.949,-94.63,-37.81,11.81,6.10,-6.62,0.31,-0.46,-6.20,2.69,1.96,0.63
1970-01-01 00:00:25.019,-94.63,-37.81,11.81,6.67,-7.04,-0.27,0.23,-5.67,2.69,2.20,-0.13
1970-01-01 00:00:25.090,-89.23,-41.06,10.80,6.60,-7.12,-0.07,0.46,-6.22,2.69,2.20,0.45
1970-01-01 00:00:25.159,-89.23,-41.06,10.80,6.60,-7.12,-0.07,-0.43,-6.22,2.69,2.20,0.02
1970-01-01 00:00:25.249,-85.21,-42.79,10.90,7.25,-7.38,3.07,1.20,-5.91,2.69,1.96,0.19
1970-01-01 00:00:25.318,-83.29,-43.11,10.07,6.33,-6.58,0.27,1.20,-6.81,2.69,1.96,0.52
1970-01-01 00:00:25.389,-79.41,-43.80,7.89,8.01,-7.12,2.87,1.20,-5.47,2.69,1.96,0.30
1970-01-01 00:00:25.460,-66.68,-44.90,-1.30,6.44,-5.78,2.22,1.20,-6.97,2.69,2.20,1.85
1970-01-01 00:00:25.539,-62.70,-53.48,-7.24,7.25,-3.71,1.69,-2.24,-7.38,2.69,1.96,-0.05
1970-01-01 00:00:25.609,-62.70,-53.48,-7.24,8.25,-6.85,3.95,0.64,-6.49,2.69,1.96,-0.13
1970-01-01 00:00:25.679,-66.54,-64.90,-5.97,8.55,-2.90,-0.42,0.64,-7.59,2.69,2.20,0.00
1970-01-01 00:00:25.750,-60.30,-68.14,-9.72,9.82,-2.56,2.30,0.64,-6.94,2.69,1.96,0.79
1970-01-01 00:00:25.820,-56.89,-72.12,-13.27,9.74,-2.06,1.99,0.64,-7.41,2.69,1.96,0.05
1970-01-01 00:00:25.890,-56.89,-72.12,-13.27,9.89,-0.95,0.92,-0.03,-7.29,2.69,2.20,0.58
1970-01-01 00:00:25.998,22.27,-82.47,-95.53,8.93,0.28,1.30,0.10,-9.23,2.69,2.20,-0.63
1970-01-01 00:00:26.068,22.27,-82.47,-95.53,9.32,0.96,0.84,0.10,-8.85,2.69,1.96,-1.17
1970-01-01 00:00:26.151,67.14,-71.00,-147.61,9.17,3.07,1.07,0.10,-7.74,2.69,1.96,-1.01
1970-01-01 00:00:26.250,73.08,-63.39,-155.39,8.29,3.80,2.57,2.45,-7.65,2.69,1.96,0.80
1970-01-01 00:00:26.320,77.45,-56.79,-159.73,8.17,4.91,1.92,2.45,-6.95,2.69,1.96,0.65
1970-01-01 00:00:26.388,78.59,-50.85,-161.53,8.17,4.91,1.92,0.92,-6.23,2.44,1.96,0.26
1970-01-01 00:00:26.470,78.84,-42.30,-163.28,6.60,8.05,0.04,-0.70,-6.41,2.69,2.20,0.11
1970-01-01 00:00:26.539,78.84,-42.30,-163.28,6.60,8.05,0.04,-0.46,-6.41,2.69,1.96,0.50
1970-01-01 00:00:26.610,80.47,-32.61,-166.40,5.14,8.02,0.80,-0.46,-6.34,2.69,1.96,0.10
1970-01-01 00:00:26.678,80.47,-32.61,-166.40,3.80,9.28,-1.11,0.55,-8.58,2.69,1.96,0.04
1970-01-01 00:00:26.749,83.38,-22.01,-170.07,3.99,10.43,0.61,0.55,-5.51,2.69,1.96,0.29
1970-01-01 00:00:26.817,84.13,-16.64,-171.34,3.99,10.43,0.61,0.55,-4.17,2.69,2.20,-0.06
1970-01-01 00:00:26.891,84.13,-16.64,-171.34,1.50,9.20,0.84,0.55,-11.09,2.44,2.20,-0.01
1970-01-01 00:00:26.957,84.13,-16.64,-171.34,1.27,9.59,1.07,0.55,-13.11,2.69,2.20,-0.42
1970-01-01 00:00:27.027,84.13,-16.64,-171.34,0.01,9.66,1.19,0.05,0.00,2.69,1.96,-0.45
1970-01-01 00:00:27.096,84.13,-16.64,-171.34,-0.76,9.55,1.27,0.05,21.95,2.69,1.96,-0.19
1970-01-01 00:00:27.169,84.13,-16.64,-171.34,-0.80,10.00,0.92,-2.21,20.88,2.69,1.96,-0.05
1970-01-01 00:00:27.235,84.13,-16.64,-171.34,-0.53,9.86,1.23,-2.21,31.55,2.69,2.20,0.12
1970-01-01 00:00:27.310,79.22,5.78,-170.28,-0.61,10.08,0.84,-2.21,-9.55,2.69,2.20,-0.20
1970-01-01 00:00:27.378,79.22,5.78,-170.28,-1.22,9.27,1.11,-0.77,-4.74,2.69,1.96,-0.19
1970-01-01 00:00:27.450,77.36,6.32,-170.86,-1.33,9.05,1.96,-0.77,-4.75,2.69,2.20,-0.28
1970-01-01 00:00:27.518,77.36,6.32,-170.86,-1.33,9.05,1.96,-0.10,-4.75,2.69,1.96,0.18
1970-01-01 00:00:27.590,75.74,6.30,-171.50,-0.84,9.39,2.07,-0.10,-7.54,2.69,2.20,-0.16
1970-01-01 00:00:27.659,74.96,6.09,-172.00,-0.76,9.51,2.80,-0.10,-8.04,2.69,2.20,-0.23
1970-01-01 00:00:27.730,74.34,6.06,-172.66,-0.91,9.21,2.61,-0.10,-6.63,2.69,2.20,-0.11
1970-01-01 00:00:27.800,74.34,6.06,-172.66,-0.84,9.62,2.41,-0.12,-7.25,2.69,1.96,0.06
1970-01-01 00:00:27.890,73.47,5.40,-172.99,-0.61,9.39,2.45,-0.12,-8.92,2.69,2.20,-0.06
1970-01-01 00:00:27.956,73.47,5.40,-172.99,-0.53,9.55,2.34,-0.37,-10.24,2.69,1.96,0.30
1970-01-01 00:00:28.030,73.47,5.40,-172.99,-0.61,9.66,2.64,-0.37,-8.92,2.69,1.96,-0.16
1970-01-01 00:00:28.096,73.47,5.40,-172.99,-0.53,9.28,2.95,0.13,-10.24,2.69,2.20,0.18
1970-01-01 00:00:28.171,72.52,4.13,-175.42,-0.53,9.47,2.80,0.13,-7.83,2.69,1.96,0.01
1970-01-01 00:00:28.239,72.52,4.13,-175.42,-0.53,9.47,2.80,-0.05,-7.83,2.69,1.96,0.22
1970-01-01 00:00:28.309,72.54,3.35,-176.54,-0.18,9.59,2.57,-0.05,-18.24,2.69,1.96,-0.01
1970-01-01 00:00:28.380,72.55,3.00,-177.28,-0.26,9.31,2.57,-0.05,-11.44,2.69,1.96,-0.01
1970-01-01 00:00:28.451,72.39,2.57,-178.14,-0.26,9.47,2.76,-0.05,-9.82,2.69,2.20,-0.06
1970-01-01 00:00:28.520,72.39,2.57,-178.14,-0.07,9.62,2.53,-0.22,-36.57,2.69,1.96,0.15
1970-01-01 00:00:28.591,72.55,1.88,179.76,-0.22,9.35,2.80,-0.22,-8.46,2.69,1.96,0.01
1970-01-01 00:00:28.660,72.55,1.88,179.76,-0.22,9.35,2.80,0.00,-8.46,2.69,2.20,0.02
1970-01-01 00:00:28.731,72.56,1.44,177.90,-0.18,9.59,2.80,0.02,-7.84,2.69,1.96,0.08
1970-01-01 00:00:28.810,72.56,1.41,177.09,-0.34,9.39,2.61,-0.25,-4.18,2.69,2.20,0.04
1970-01-01 00:00:28.879,72.39,1.45,176.58,-0.41,9.35,3.14,-0.25,-3.51,2.69,2.20,-0.05
1970-01-01 00:00:28.950,72.17,1.22,176.03,-0.03,9.66,3.18,-0.25,-39.06,2.69,1.96,-0.07
1970-01-01 00:00:29.030,72.24,1.19,176.34,-0.11,9.32,2.61,-0.38,-10.89,2.69,1.96,0.06
1970-01-01 00:00:29.101,72.09,1.24,176.47,-0.11,9.47,2.91,-0.38,-11.31,2.69,1.96,-0.04
1970-01-01 00:00:29.171,71.93,1.10,176.28,-0.07,9.55,2.99,-0.38,-15.67,2.69,1.96,-0.05
1970-01-01 00:00:29.240,71.93,1.10,176.28,-0.11,9.24,2.99,-0.20,-10.07,2.69,2.20,0.09
1970-01-01 00:00:29.310,72.31,1.08,176.44,-0.07,9.32,2.87,-0.20,-15.33,2.69,1.96,0.09
1970-01-01 00:00:29.380,72.31,1.08,176.44,-0.07,9.62,2.72,-0.06,-15.33,2.69,2.20,0.03
1970-01-01 00:00:29.501,72.37,0.91,177.31,0.01,9.62,2.84,-0.01,0.00,2.69,2.20,0.13
1970-01-01 00:00:29.570,72.37,0.91,177.31,0.01,9.62,2.84,-0.20,0.00,2.69,1.96,0.05
1970-01-01 00:00:29.649,72.35,0.80,177.46,-0.03,9.39,3.18,-0.20,-25.52,2.69,1.96,-0.02
1970-01-01 00:00:29.720,72.38,0.71,177.65,0.05,9.59,2.99,-0.20,15.08,2.69,1.96,0.02
1970-01-01 00:00:29.791,72.50,0.45,178.09,0.01,9.39,2.57,-0.20,0.00,2.44,2.20,0.03
1970-01-01 00:00:29.858,72.50,0.45,178.09,0.01,9.39,2.57,-0.43,0.00,2.44,2.20,-0.03
1970-01-01 00:00:29.939,72.71,0.26,178.25,0.20,9.66,3.34,-0.43,1.33,2.69,1.96,-0.04
1970-01-01 00:00:30.010,72.66,0.09,178.44,-0.07,9.43,2.41,-0.43,-1.32,2.69,1.96,-0.01
1970-01-01 00:00:30.079,72.58,0.27,178.87,0.01,9.47,3.07,-0.43,0.00,2.69,2.20,-0.04
1970-01-01 00:00:30.150,72.49,0.18,178.64,-0.11,9.24,2.95,-0.43,-1.65,2.69,1.96,-0.01
1970-01-01 00:00:30.220,72.47,0.11,178.97,0.01,9.59,2.72,-0.43,0.00,2.44,2.20,-0.01
1970-01-01 00:00:30.301,72.53,0.00,179.18,0.01,9.39,2.87,-0.43,0.00,2.69,1.96,0.01
1970-01-01 00:00:30.369,72.49,-0.09,179.27,0.05,9.59,2.99,-0.43,-1.87,2.44,1.96,-0.01
1970-01-01 00:00:30.441,72.52,-0.15,179.48,0.05,9.47,2.80,-0.43,-3.10,2.69,2.20,0.00
1970-01-01 00:00:30.510,72.54,-0.28,179.76,0.05,9.36,2.95,-0.43,-6.02,2.69,1.96,0.01
1970-01-01 00:00:30.590,72.54,-0.40,180.00,0.05,9.47,2.80,-0.43,-8.45,2.69,1.96,-0.01
1970-01-01 00:00:30.660,72.53,-0.51,-179.88,0.05,9.39,2.91,-0.43,-10.81,2.69,1.96,-0.01
1970-01-01 00:00:30.731,72.50,-0.51,-179.74,0.08,9.59,2.91,-0.43,-6.22,2.69,1.96,-0.01
1970-01-01 00:00:30.917,72.50,-0.51,-179.74,0.08,9.59,2.91,-0.43,-6.22,2.69,2.20,-0.11
1970-01-01 00:00:30.987,72.50,-0.51,-179.74,0.58,12.45,2.03,-0.43,-0.88,2.69,1.96,-0.53
1970-01-01 00:00:31.061,72.50,-0.51,-179.74,0.77,12.23,1.27,-0.43,-0.66,2.69,2.20,-1.42
1970-01-01 00:00:31.131,72.50,-0.51,-179.74,0.01,10.16,-0.57,-5.35,0.00,2.69,1.96,0.38
1970-01-01 00:00:31.201,48.99,0.30,-178.24,0.77,3.65,7.32,-5.35,0.38,2.69,1.96,-2.90
1970-01-01 00:00:31.269,48.99,0.30,-178.24,0.77,3.65,7.32,-2.78,0.38,2.69,2.20,-1.68
1970-01-01 00:00:31.341,18.79,-4.25,-179.11,-0.80,-2.10,10.65,-2.78,5.33,2.69,2.20,-4.51
1970-01-01 00:00:31.411,18.79,-4.25,-179.11,-0.61,-2.48,9.84,0.57,7.01,2.69,1.96,-1.89
1970-01-01 00:00:31.481,4.08,-7.82,-173.38,3.00,0.39,8.96,0.57,-2.61,2.69,1.96,-1.04
1970-01-01 00:00:31.551,4.08,-7.82,-173.38,4.30,1.62,7.97,-1.42,-1.82,2.69,1.96,1.80
1970-01-01 00:00:31.621,-2.38,-21.32,-172.30,10.27,-16.70,33.59,-1.42,-2.08,2.69,2.20,-0.90
1970-01-01 00:00:31.691,-0.29,-19.86,-176.70,1.08,-7.08,13.10,-1.42,-18.43,2.69,1.96,-4.06
1970-01-01 00:00:31.761,-1.72,-18.12,179.44,2.54,-3.17,9.81,-1.42,-7.15,2.69,1.96,0.29
1970-01-01 00:00:31.831,-1.72,-18.12,179.44,2.54,-3.17,9.81,0.99,-7.15,2.69,2.20,-0.49
1970-01-01 00:00:31.899,5.31,-13.51,-176.43,2.80,0.43,9.08,0.99,-4.82,2.69,1.96,1.03
1970-01-01 00:00:31.968,5.31,-13.51,-176.43,2.88,3.00,6.75,0.99,-4.69,2.69,1.96,-0.33
1970-01-01 00:00:32.052,5.31,-13.51,-176.43,1.46,0.35,8.86,-1.67,-9.24,2.69,1.96,-0.23
1970-01-01 00:00:32.121,5.31,-13.51,-176.43,2.42,2.11,6.05,-1.67,-5.58,2.69,1.96,-0.02
1970-01-01 00:00:32.193,4.26,-5.27,-172.48,0.73,0.39,8.92,-1.67,-7.17,2.69,1.96,0.64
1970-01-01 00:00:32.270,-0.73,-2.72,-171.24,0.70,2.92,6.62,-1.67,-3.91,2.69,1.96,-0.23
1970-01-01 00:00:32.341,-3.38,-2.62,-169.15,0.35,0.73,8.05,-1.67,-7.46,2.69,2.20,-8.48
1970-01-01 00:00:32.411,-3.59,-2.66,-169.03,0.20,-2.52,11.30,-1.67,-13.37,2.69,1.96,-0.30
1970-01-01 00:00:32.492,-3.74,-2.65,-169.05,0.31,-1.41,10.35,-1.67,-8.48,2.69,1.96,0.13
1970-01-01 00:00:32.561,-3.74,-2.65,-169.05,0.31,-1.41,10.35,-0.03,-8.48,2.69,2.20,-0.04
1970-01-01 00:00:32.642,-3.74,-2.65,-169.05,0.27,-0.53,9.20,-0.03,-9.69,2.69,1.96,-0.32
1970-01-01 00:00:32.712,-3.16,-2.52,-169.04,0.31,-0.80,9.62,-0.03,-8.07,2.69,1.96,-0.03
1970-01-01 00:00:32.781,-3.16,-2.52,-169.04,0.27,-0.91,9.88,-0.03,-9.20,2.69,1.96,0.00
1970-01-01 00:00:32.851,-3.16,-2.52,-169.03,0.27,-0.91,9.84,-0.03,-9.20,2.69,2.20,0.00
1970-01-01 00:00:32.950,-3.16,-2.52,-169.03,0.31,-0.84,9.85,0.23,-8.05,2.69,1.96,-0.09
1970-01-01 00:00:33.032,-3.23,-2.50,-169.03,0.31,-0.88,9.89,0.27,-7.98,2.44,2.20,-0.09
1970-01-01 00:00:33.101,-3.23,-2.50,-169.03,0.31,-0.91,9.85,-0.08,-7.98,2.69,1.96,-0.03
1970-01-01 00:00:33.181,-4.46,-2.26,-169.00,0.35,-0.88,10.00,-0.08,-6.44,2.69,1.96,-0.07
1970-01-01 00:00:33.252,-4.63,-2.23,-169.00,0.31,-1.14,10.11,-0.08,-7.15,2.69,1.96,-0.05
1970-01-01 00:00:33.321,-4.63,-2.22,-169.01,0.31,-0.95,9.88,-0.08,-7.10,2.69,2.20,0.00
1970-01-01 00:00:33.401,-4.63,-2.20,-169.00,0.31,-0.88,9.80,-0.08,-7.04,2.69,1.96,0.01
1970-01-01 00:00:33.470,-4.65,-2.19,-169.01,0.31,-0.95,9.81,-0.08,-7.01,2.69,1.96,0.00
1970-01-01 00:00:33.539,-4.69,-2.17,-169.01,0.31,-0.95,9.84,-0.08,-6.95,2.69,1.96,0.00
1970-01-01 00:00:33.611,-4.73,-2.15,-169.01,0.31,-0.99,9.89,-0.08,-6.89,2.69,1.71,0.00
1970-01-01 00:00:33.682,-4.78,-2.13,-169.00,0.31,-0.99,9.85,-0.08,-6.81,2.69,1.96,-0.00
1970-01-01 00:00:33.761,-4.86,-2.08,-168.99,0.27,-0.99,9.84,-0.08,-7.62,2.69,2.20,-0.00
1970-01-01 00:00:33.830,-4.89,-2.07,-168.99,0.31,-0.95,9.84,-0.08,-6.61,2.69,2.20,0.00
1970-01-01 00:00:33.902,-4.95,-2.04,-168.99,0.27,-0.99,9.84,-0.08,-7.46,2.44,2.20,0.00
1970-01-01 00:00:33.972,-4.99,-2.02,-168.99,0.31,-0.95,9.84,-0.08,-6.47,2.69,1.96,0.00
1970-01-01 00:00:34.041,-5.03,-2.00,-168.99,0.31,-0.95,9.88,-0.08,-6.39,2.44,2.20,0.00
1970-01-01 00:00:34.112,-5.07,-1.98,-168.99,0.31,-0.99,9.85,-0.08,-6.34,2.69,1.96,0.00
1970-01-01 00:00:34.192,-5.12,-1.95,-168.99,0.31,-0.95,9.84,-0.08,-6.25,2.69,2.20,0.00
1970-01-01 00:00:34.262,-5.14,-1.94,-168.99,0.31,-0.99,9.85,-0.08,-6.22,2.69,1.96,0.00
1970-01-01 00:00:34.332,-5.18,-1.93,-168.99,0.27,-0.95,9.85,-0.08,-7.05,2.69,2.20,0.00
1970-01-01 00:00:34.401,-5.18,-1.93,-168.99,0.35,-0.95,9.84,-0.00,-5.48,2.69,1.96,0.01
1970-01-01 00:00:34.471,-5.22,-1.90,-168.99,0.31,-0.95,9.84,-0.00,-6.09,2.69,1.96,0.00
1970-01-01 00:00:34.551,-5.27,-1.88,-168.99,0.27,-0.95,9.80,-0.00,-6.89,2.69,2.20,-0.00
1970-01-01 00:00:34.621,-5.28,-1.88,-168.99,0.31,-0.95,9.84,-0.00,-6.00,2.69,1.96,0.00
1970-01-01 00:00:34.692,-5.30,-1.87,-168.99,0.31,-0.99,9.85,-0.00,-5.97,2.69,2.20,0.00
1970-01-01 00:00:34.762,-5.32,-1.86,-168.99,0.31,-0.99,9.80,-0.00,-5.94,2.69,1.96,0.00
1970-01-01 00:00:34.831,-5.32,-1.86,-168.99,0.31,-0.99,9.85,0.00,-5.94,2.69,2.20,0.01
1970-01-01 00:00:34.902,-5.37,-1.84,-168.99,0.35,-0.99,9.85,0.00,-5.23,2.69,2.20,0.00
1970-01-01 00:00:34.972,-5.39,-1.83,-168.99,0.31,-0.95,9.84,0.00,-5.86,2.69,2.20,0.00
1970-01-01 00:00:35.041,-5.41,-1.83,-168.99,0.31,-0.99,9.85,0.00,-5.85,2.69,2.20,0.00
1970-01-01 00:00:35.108,-5.43,-1.82,-168.99,0.31,-0.99,9.85,0.00,-5.82,2.69,1.96,0.00
1970-01-01 00:00:35.193,-5.43,-1.82,-168.99,0.31,-0.95,9.88,0.00,-5.82,2.69,1.96,0.01
1970-01-01 00:00:35.261,-5.43,-1.82,-168.99,0.31,-0.95,9.88,0.00,-5.82,2.69,1.96,0.00
1970-01-01 00:00:35.332,-5.48,-1.81,-168.99,0.31,-0.88,9.85,0.00,-5.81,2.69,1.96,0.00
1970-01-01 00:00:35.412,-5.51,-1.81,-168.99,0.35,-1.49,10.39,0.00,-5.15,2.69,1.96,0.00
1970-01-01 00:00:35.481,-5.37,-1.79,-168.99,0.24,-0.84,9.54,0.00,-7.51,2.69,1.96,0.09
1970-01-01 00:00:35.552,-5.31,-1.81,-168.96,0.39,-0.88,9.81,0.00,-4.63,2.69,1.96,-0.06
1970-01-01 00:00:35.621,-5.29,-1.82,-168.97,0.31,-0.88,9.77,0.00,-5.81,2.69,1.96,0.01
1970-01-01 00:00:35.692,-5.26,-1.81,-168.97,0.27,-0.88,9.73,-0.07,-6.60,2.69,1.96,0.00
1970-01-01 00:00:35.762,-5.26,-1.81,-168.97,0.31,-0.88,9.73,0.05,-5.78,2.69,1.96,-0.04
1970-01-01 00:00:35.832,-5.23,-1.79,-168.97,0.31,-0.91,9.77,0.05,-5.74,2.69,2.20,-0.01
1970-01-01 00:00:35.899,-5.35,-1.82,-168.97,0.31,-0.91,9.77,0.05,-5.82,2.69,2.20,-0.02
1970-01-01 00:00:35.968,-5.35,-1.82,-168.97,0.31,-0.95,9.81,0.05,-5.82,2.69,2.20,-0.01
1970-01-01 00:00:36.052,-5.35,-1.82,-168.97,0.31,-0.99,9.89,0.04,-5.82,2.44,2.20,0.00
1970-01-01 00:00:36.122,-5.35,-1.82,-168.97,0.31,-0.99,9.89,-0.04,-5.82,2.69,1.96,0.04
1970-01-01 00:00:36.192,-5.38,-1.82,-168.97,0.35,-0.95,9.84,-0.04,-5.19,2.69,1.96,0.00
1970-01-01 00:00:36.292,-5.41,-1.83,-168.97,0.31,-0.95,9.84,-0.00,-5.85,2.69,2.20,0.00
1970-01-01 00:00:36.362,-5.42,-1.83,-168.97,0.31,-0.95,9.84,-0.00,-5.84,2.69,1.96,0.00
1970-01-01 00:00:36.463,-5.42,-1.83,-168.97,0.31,-0.91,9.89,-0.23,-5.84,2.69,1.96,-0.04
1970-01-01 00:00:36.533,-5.46,-1.82,-168.98,0.39,-1.10,10.34,-0.23,-4.67,2.69,1.96,-0.01
1970-01-01 00:00:36.602,-5.46,-1.82,-168.98,0.39,-1.10,10.34,-0.44,-4.67,2.69,1.96,-0.15
1970-01-01 00:00:36.672,-5.52,-1.81,-167.48,0.50,-1.26,10.57,-0.44,-3.59,2.44,2.20,0.13
1970-01-01 00:00:36.752,-4.60,-1.60,-167.35,-2.29,-1.71,5.68,-0.44,0.70,2.69,1.96,0.02
1970-01-01 00:00:36.823,-5.41,-1.85,-166.05,3.23,-1.14,11.69,-0.44,-0.57,2.69,2.20,-0.33
1970-01-01 00:00:36.893,-5.70,-1.86,-165.00,0.27,-1.56,10.31,-0.44,-6.79,2.69,1.96,0.11
1970-01-01 00:00:36.971,-5.20,-1.76,-164.55,0.50,-0.61,11.23,-0.44,-3.49,2.69,1.96,-0.01
1970-01-01 00:00:37.042,-5.58,-1.88,-163.54,0.31,-1.45,10.31,-0.44,-6.02,2.69,1.96,-0.65
