Timestamp,CarPitch,CarRoll,CarYaw,LatAccel,Ay,ForwardAccel,LinAccel,RGrad,ShockPot,GyX
2025-05-24 15:37:59.803,0.00,0.00,0.00,0.00,0.00,0.00,0.00,0.00,2.69,0.00
2025-05-24 15:37:59.928,0.00,0.00,0.00,-0.23,-0.22,9.38,0.00,0.00,2.69,0.00
2025-05-24 15:37:59.010,0.00,0.00,0.00,-0.23,-0.22,9.38,0.01,0.00,2.69,-0.01
2025-05-24 15:37:59.126,0.00,0.00,0.00,-0.23,-0.18,9.45,0.01,0.00,2.69,-0.01
2025-05-24 15:37:59.256,-1.16,1.33,-56.24,-0.20,-0.18,9.42,-0.02,-6.81,2.44,-0.01
2025-05-24 15:38:00.334,-1.16,1.33,-56.24,-0.23,-0.22,9.42,0.02,-5.67,2.69,-0.01
2025-05-24 15:38:00.435,-1.16,1.33,-56.24,-0.23,-0.14,9.41,0.02,-5.67,2.69,-0.01
2025-05-24 15:38:00.536,-1.16,1.33,-56.24,-0.23,-0.18,9.41,0.02,-5.67,2.69,0.00
2025-05-24 15:38:00.645,-1.13,1.36,-56.24,-0.23,-0.22,9.38,0.02,-5.78,2.69,0.00
2025-05-24 15:38:00.746,-1.13,1.36,-56.24,-0.20,-0.18,9.42,0.02,-6.94,2.69,0.00
2025-05-24 15:38:00.857,-1.13,1.36,-56.24,-0.20,-0.18,9.42,0.01,-6.94,2.69,-0.01
2025-05-24 15:38:00.965,-1.12,1.36,-56.24,-0.23,-0.18,9.41,0.05,-5.81,2.69,-0.01
2025-05-24 15:38:00.042,-1.12,1.36,-56.24,-0.23,-0.18,9.41,0.05,-5.81,2.69,0.00
2025-05-24 15:38:00.146,-1.12,1.36,-56.24,-0.23,-0.18,9.34,0.05,-5.81,2.69,0.00
2025-05-24 15:38:00.246,-1.12,1.36,-56.24,-0.23,-0.18,9.38,0.05,-5.81,2.69,0.00
2025-05-24 15:38:01.343,-1.12,1.36,-56.24,-0.23,-0.18,9.38,-0.03,-5.81,2.69,0.03
2025-05-24 15:38:01.444,-1.12,1.36,-56.24,-0.27,-0.14,9.41,0.01,-5.05,2.44,-0.01
2025-05-24 15:38:01.545,-1.12,1.36,-56.24,-0.23,-0.22,9.38,0.01,-5.81,2.69,0.00
2025-05-24 15:38:01.646,-1.12,1.36,-56.24,-0.23,-0.22,9.38,0.01,-5.81,2.69,0.00
2025-05-24 15:38:01.766,-1.11,1.37,-56.24,-0.20,-0.18,9.42,-0.03,-7.04,2.69,0.03
2025-05-24 15:38:01.865,-1.10,1.38,-56.24,-0.23,-0.18,9.45,0.01,-5.88,2.69,-0.01
2025-05-24 15:38:01.956,-1.10,1.38,-56.24,-0.20,-0.14,9.46,0.01,-7.06,2.69,0.00
2025-05-24 15:38:01.054,-1.10,1.38,-56.24,-0.23,-0.14,9.38,0.01,-5.88,2.44,0.00
2025-05-24 15:38:02.376,-1.10,1.38,-56.24,-0.20,-0.18,9.38,0.05,-7.06,2.69,0.02
2025-05-24 15:38:02.477,-1.10,1.38,-56.24,-0.23,-0.22,9.42,0.05,-5.88,2.69,0.00
2025-05-24 15:38:02.577,-1.10,1.38,-56.24,-0.20,-0.14,9.46,0.05,-7.06,2.69,0.00
2025-05-24 15:38:02.716,-1.09,1.36,-56.24,-0.23,-0.18,9.41,0.04,-5.82,2.69,0.00
2025-05-24 15:38:02.778,-1.09,1.36,-56.24,-0.23,-0.18,9.41,0.04,-5.82,2.69,0.00
2025-05-24 15:38:02.886,-1.09,1.37,-56.24,-0.20,-0.22,9.41,0.04,-7.01,2.69,0.00
2025-05-24 15:38:02.996,-1.09,1.37,-56.24,-0.20,-0.18,9.38,-0.03,-7.01,2.69,0.00
2025-05-24 15:38:02.087,-1.09,1.37,-56.24,-0.20,-0.22,9.41,-0.03,-7.01,2.69,0.00
2025-05-24 15:38:02.187,-1.09,1.37,-56.24,-0.20,-0.07,9.34,-0.03,-7.01,2.44,0.00
2025-05-24 15:38:02.284,-1.09,1.37,-56.24,-0.23,-0.22,9.38,-0.03,-5.84,2.69,-0.01
2025-05-24 15:38:03.386,-1.09,1.37,-56.24,-0.12,-0.37,9.30,-0.03,-11.68,2.69,-0.01
2025-05-24 15:38:03.487,-1.09,1.37,-56.24,-0.77,0.55,8.95,-0.03,-1.78,2.69,0.00
2025-05-24 15:38:03.597,-1.09,1.37,-56.24,0.07,1.54,9.22,0.32,18.45,2.69,1.33
2025-05-24 15:38:03.687,-1.09,1.37,-56.24,-1.30,-0.03,9.64,0.32,-1.05,2.69,0.17
2025-05-24 15:38:03.797,-1.09,1.37,-56.24,2.11,-1.33,10.56,0.17,0.65,2.69,2.66
2025-05-24 15:38:03.897,-1.09,1.37,-56.24,-2.11,-1.71,9.18,-0.07,-0.65,2.69,-1.54
2025-05-24 15:38:03.997,-1.09,1.37,-56.24,-0.50,1.77,8.41,-0.07,-2.74,2.69,0.07
2025-05-24 15:38:03.097,-1.09,1.37,-56.24,1.37,1.27,9.80,-0.07,1.00,2.69,-0.08
2025-05-24 15:38:03.192,-1.09,1.37,-56.24,1.37,1.27,9.80,-0.07,1.00,2.69,-0.92
2025-05-24 15:38:04.317,-5.12,1.75,166.40,0.65,0.13,7.50,1.95,2.70,2.69,-0.25
2025-05-24 15:38:04.396,-5.12,1.75,166.40,-0.66,-0.11,8.27,1.95,-2.67,2.69,0.19
2025-05-24 15:38:04.497,-5.12,1.75,166.40,-0.46,-0.64,9.88,-0.25,-3.77,2.69,0.31
2025-05-24 15:38:04.598,-5.12,1.75,166.40,-0.12,0.05,9.34,-0.25,-14.94,2.69,-0.02
2025-05-24 15:38:04.697,-5.12,1.75,166.40,-0.50,0.05,9.18,-0.25,-3.50,2.69,0.03
2025-05-24 15:38:04.807,-4.12,0.84,132.81,-0.23,0.28,8.96,-0.25,-3.60,2.69,-0.04
2025-05-24 15:38:04.908,-4.12,0.84,132.81,-0.00,-0.68,9.68,0.75,0.00,2.69,-0.05
2025-05-24 15:38:04.008,-4.12,0.84,132.81,0.04,-0.52,9.76,-0.10,24.00,2.69,-0.00
2025-05-24 15:38:04.117,-4.12,0.84,132.81,-0.23,0.43,9.50,0.13,-3.60,2.69,0.05
2025-05-24 15:38:04.203,-4.12,0.84,132.81,-0.23,0.43,9.50,0.13,-3.60,2.69,0.40
2025-05-24 15:38:05.303,-4.12,0.84,132.81,-0.16,0.28,10.07,0.13,-5.40,2.69,-0.03
2025-05-24 15:38:05.406,-4.12,0.84,132.81,-0.20,-0.18,9.57,0.13,-4.32,2.44,0.00
2025-05-24 15:38:05.508,-4.12,0.84,132.81,-0.35,0.09,9.07,-0.07,-2.43,2.69,0.05
2025-05-24 15:38:05.617,-3.20,1.39,135.75,-0.16,-0.37,9.50,-0.07,-8.88,2.69,0.01
2025-05-24 15:38:05.707,-3.20,1.39,135.75,-0.31,0.01,9.38,-0.07,-4.50,2.69,-0.04
2025-05-24 15:38:05.807,-3.20,1.39,135.75,-0.31,0.24,9.15,-0.07,-4.50,2.69,0.04
2025-05-24 15:38:05.917,-3.20,1.39,135.75,-0.39,0.05,9.15,-0.31,-3.59,2.44,-0.15
2025-05-24 15:38:05.018,-3.20,1.39,135.75,-0.31,0.05,9.22,-0.31,-4.50,2.69,-0.15
2025-05-24 15:38:05.127,-2.76,1.29,136.41,-0.23,-0.03,9.34,-0.31,-5.48,2.69,0.01
2025-05-24 15:38:05.212,-2.76,1.29,136.41,-0.23,-0.03,9.34,-0.31,-5.48,2.44,-0.06
2025-05-24 15:38:06.314,-2.76,1.29,136.41,-0.20,-0.11,9.42,-0.31,-6.58,2.69,0.00
2025-05-24 15:38:06.415,-2.76,1.29,136.41,-0.23,-0.07,9.45,-0.31,-5.48,2.69,-0.03
2025-05-24 15:38:06.514,-2.76,1.29,136.41,-0.23,-0.07,9.45,0.13,-5.48,2.69,0.02
2025-05-24 15:38:06.628,-1.00,1.52,136.44,-0.27,-0.22,9.61,0.13,-5.64,2.69,0.02
2025-05-24 15:38:06.717,-1.00,1.52,136.44,-0.27,0.01,9.41,0.13,-5.64,2.69,-0.00
2025-05-24 15:38:06.817,-1.00,1.52,136.44,-0.27,-0.07,9.41,0.13,-5.64,2.69,0.00
2025-05-24 15:38:06.928,-0.85,1.53,136.45,-0.27,0.01,9.38,0.13,-5.67,2.69,-0.00
2025-05-24 15:38:06.028,-0.77,1.55,136.45,-0.27,0.01,9.38,0.13,-5.74,2.69,0.00
2025-05-24 15:38:06.138,-0.69,1.55,136.44,-0.27,0.01,9.38,0.08,-5.77,2.44,0.01
2025-05-24 15:38:06.226,-0.69,1.55,136.44,-0.23,0.01,9.34,0.08,-6.63,2.69,0.00
2025-05-24 15:38:07.324,-0.69,1.55,136.44,-0.27,0.01,9.38,0.08,-5.77,2.69,0.00
2025-05-24 15:38:07.426,-0.69,1.55,136.44,-0.27,-0.03,9.42,0.08,-5.77,2.69,-0.00
2025-05-24 15:38:07.528,-0.69,1.55,136.44,-0.27,0.01,9.34,0.08,-5.77,2.69,0.01
2025-05-24 15:38:07.624,-0.69,1.55,136.44,-0.27,0.01,9.34,-0.05,-5.77,2.69,-0.03
2025-05-24 15:38:07.729,-0.69,1.55,136.44,-0.31,-0.03,9.50,-0.05,-5.04,2.69,-0.03
2025-05-24 15:38:07.828,-0.69,1.55,136.44,-0.27,-0.03,9.34,-0.05,-5.77,2.69,-0.01
2025-05-24 15:38:07.928,-0.69,1.55,136.44,-0.27,-0.03,9.34,-0.05,-5.77,2.44,0.00
2025-05-24 15:38:07.048,-0.26,1.67,136.46,-0.23,0.01,9.34,0.04,-7.11,2.44,0.01
2025-05-24 15:38:07.148,-0.26,1.64,136.46,-0.58,0.13,9.30,0.04,-2.84,2.69,-0.01
2025-05-24 15:38:07.233,-0.26,1.64,136.46,-0.58,0.13,9.30,0.04,-2.84,2.69,0.00
2025-05-24 15:38:08.336,-0.26,1.64,136.46,-0.54,-2.52,11.63,0.04,-3.05,2.69,-1.53
2025-05-24 15:38:08.438,-10.18,-1.55,138.01,0.50,-0.98,8.65,0.04,-3.12,2.44,-0.74
2025-05-24 15:38:08.538,-10.18,-1.55,138.01,0.53,-2.67,9.15,0.04,-2.91,2.69,-1.69
2025-05-24 15:38:08.634,-10.18,-1.55,138.01,0.11,-5.27,7.61,0.04,-13.66,2.69,-2.88
2025-05-24 15:38:08.737,-10.18,-1.55,138.01,1.68,-5.70,5.73,0.04,-0.92,2.69,-2.88
2025-05-24 15:38:08.838,-10.18,-1.55,138.01,0.42,-8.15,4.17,0.04,-3.70,2.69,-1.75
2025-05-24 15:38:08.939,-10.18,-1.55,138.01,0.42,-8.15,4.17,0.04,-3.70,2.69,-2.21
2025-05-24 15:38:08.048,-78.70,2.53,135.35,0.50,-5.47,-7.86,0.04,5.10,2.69,2.23
2025-05-24 15:38:08.149,-78.70,2.53,135.35,-0.35,-7.35,0.30,0.04,-7.28,2.69,-0.68
2025-05-24 15:38:08.249,-78.70,2.53,135.35,-0.54,-7.87,0.53,0.04,-4.70,2.69,-0.07
2025-05-24 15:38:09.345,-78.70,2.53,135.35,-0.35,-10.49,1.22,0.04,-7.28,2.69,-0.13
2025-05-24 15:38:09.443,-78.70,2.53,135.35,-0.35,-10.49,1.22,0.04,-7.28,2.69,-0.17
2025-05-24 15:38:09.767,-78.70,2.53,135.35,0.15,-9.30,-0.93,0.04,17.06,2.69,-0.06
2025-05-24 15:38:09.879,-86.81,0.48,137.90,0.07,-9.38,0.14,-0.24,6.42,2.69,0.11
2025-05-24 15:38:09.968,-86.81,0.48,137.90,0.07,-9.49,0.03,-0.24,6.42,2.69,-0.11
2025-05-24 15:38:09.078,-87.18,0.42,137.95,0.11,-9.38,0.14,-0.24,3.71,2.69,-0.03
2025-05-24 15:38:09.179,-87.18,0.42,137.95,-0.00,-9.41,0.03,-0.28,0.00,2.69,0.06
2025-05-24 15:38:09.277,-87.18,0.42,137.95,-0.00,-9.41,0.18,0.04,0.00,2.69,-0.07
2025-05-24 15:38:10.379,-87.18,0.42,137.95,0.04,-9.41,0.22,0.05,11.96,2.69,-0.07
2025-05-24 15:38:10.474,-87.18,0.42,137.95,0.04,-9.41,0.22,0.05,11.96,2.69,0.03
2025-05-24 15:38:10.575,-87.18,0.42,137.95,0.07,-9.41,0.26,0.05,5.66,2.69,-0.00
2025-05-24 15:38:10.675,-87.18,0.42,137.95,0.07,-9.41,0.26,0.05,5.66,2.69,-0.05
2025-05-24 15:38:10.779,-87.18,0.42,137.95,0.04,-9.45,0.22,0.02,11.96,2.69,0.04
2025-05-24 15:38:10.888,-88.33,-0.07,137.76,0.04,-9.41,0.22,0.02,-2.00,2.69,-0.02
2025-05-24 15:38:10.999,-88.33,-0.07,137.76,0.04,-9.38,0.18,-0.01,-2.00,2.69,-0.04
2025-05-24 15:38:10.080,-88.33,-0.07,137.76,0.04,-9.42,0.26,-0.01,-2.00,2.44,0.03
2025-05-24 15:38:10.188,-88.24,-0.09,137.78,0.04,-9.42,0.26,-0.01,-2.69,2.69,-0.02
2025-05-24 15:38:10.299,-88.24,-0.09,137.78,0.04,-9.42,0.26,0.03,-2.69,2.69,0.04
2025-05-24 15:38:11.389,-88.24,-0.09,137.78,0.07,-9.34,0.26,-0.02,-1.28,2.44,0.00
2025-05-24 15:38:11.486,-88.24,-0.09,137.78,0.04,-9.48,0.26,-0.02,-2.69,2.69,-0.01
2025-05-24 15:38:11.586,-88.24,-0.09,137.78,0.04,-9.42,0.26,-0.02,-2.69,2.69,0.00
2025-05-24 15:38:11.687,-88.24,-0.09,137.78,0.04,-9.38,0.30,-0.02,-2.69,2.69,0.01
2025-05-24 15:38:11.789,-88.24,-0.09,137.78,0.04,-9.49,0.22,-0.02,-2.69,2.69,0.04
2025-05-24 15:38:11.899,-88.28,-0.15,137.80,-0.00,-9.45,0.30,-0.02,0.00,2.69,0.01
2025-05-24 15:38:11.989,-88.28,-0.15,137.80,0.07,-9.38,0.22,-0.02,-2.07,2.69,0.01
2025-05-24 15:38:11.099,-88.16,-0.15,137.82,0.04,-9.42,0.34,-0.02,-4.38,2.44,0.03
2025-05-24 15:38:11.199,-88.16,-0.15,137.82,0.04,-9.45,0.30,0.00,-4.38,2.69,0.00
2025-05-24 15:38:11.299,-88.16,-0.15,137.82,0.07,-9.42,0.30,-0.03,-2.08,2.44,-0.04
2025-05-24 15:38:12.394,-88.16,-0.15,137.82,0.07,-9.42,0.30,-0.03,-2.08,2.69,-0.01
2025-05-24 15:38:12.497,-88.16,-0.15,137.82,0.04,-9.42,0.34,-0.03,-4.38,2.69,0.02
2025-05-24 15:38:12.595,-88.16,-0.15,137.82,-0.00,-9.45,0.30,-0.03,0.00,2.69,-0.00
2025-05-24 15:38:12.699,-88.16,-0.15,137.82,-0.04,-9.41,0.37,-0.03,3.59,2.69,-0.01
2025-05-24 15:38:12.799,-88.16,-0.15,137.82,-0.00,-9.48,0.11,-0.20,0.00,2.69,-0.01
2025-05-24 15:38:12.909,-87.91,-0.25,137.90,0.04,-9.42,0.49,-0.20,-7.18,2.69,0.11
2025-05-24 15:38:12.998,-87.91,-0.25,137.90,0.04,-9.42,0.26,-0.20,-7.18,2.69,-0.07
2025-05-24 15:38:12.109,-87.91,-0.25,137.90,0.04,-9.45,0.34,-0.20,-7.18,2.44,0.01
2025-05-24 15:38:12.210,-88.25,-0.25,137.84,0.07,-9.49,0.26,-0.20,-3.34,2.69,-0.01
2025-05-24 15:38:13.319,-88.25,-0.25,137.84,-0.00,-9.49,0.34,0.01,0.00,2.69,-0.02
2025-05-24 15:38:13.419,-88.58,-0.31,137.81,-0.00,-9.41,0.14,0.01,0.00,2.69,-0.09
2025-05-24 15:38:13.507,-88.58,-0.31,137.81,0.07,-9.18,-0.13,0.01,-4.22,2.69,-0.06
2025-05-24 15:38:13.606,-88.58,-0.31,137.81,0.80,-8.96,0.22,0.01,-0.39,2.69,-0.62
2025-05-24 15:38:13.706,-88.58,-0.31,137.81,0.80,-8.96,0.22,0.01,-0.39,2.69,-0.07
2025-05-24 15:38:13.808,-88.58,-0.31,137.81,0.80,-8.96,0.22,0.18,-0.39,2.69,0.04
2025-05-24 15:38:13.920,-91.99,-14.39,136.45,2.26,-8.15,-0.43,0.18,-6.38,2.69,-0.03
2025-05-24 15:38:13.009,-91.99,-14.39,136.45,3.71,-7.69,0.22,0.18,-3.88,2.44,0.17
2025-05-24 15:38:13.109,-91.99,-14.39,136.45,4.52,-9.07,0.22,0.18,-3.19,2.69,0.08
2025-05-24 15:38:13.219,-91.99,-14.39,136.45,4.90,-8.15,-0.89,-0.81,-2.94,2.69,-0.01
2025-05-24 15:38:14.313,-91.99,-14.39,136.45,4.98,-6.66,-0.13,-0.81,-2.89,2.69,-0.05
2025-05-24 15:38:14.429,-96.12,-38.07,141.98,6.70,-7.23,-0.73,-0.30,-5.68,2.44,-0.05
2025-05-24 15:38:14.515,-96.12,-38.07,141.98,6.70,-7.23,-0.73,-0.30,-5.68,2.69,-0.14
2025-05-24 15:38:14.615,-96.12,-38.07,141.98,6.62,-6.20,-0.43,-0.30,-5.75,2.69,0.02
2025-05-24 15:38:14.718,-96.12,-38.07,141.98,6.39,-7.69,-0.05,-0.30,-5.95,2.69,-0.21
2025-05-24 15:38:14.819,-96.12,-38.07,141.98,6.51,-7.23,-0.43,-0.30,-5.85,2.69,-0.34
2025-05-24 15:38:14.920,-96.12,-38.07,141.98,6.97,-6.81,-0.81,-0.30,-5.46,2.69,-0.48
2025-05-24 15:38:14.018,-96.12,-38.07,141.98,7.12,-5.70,-2.69,-0.30,-5.35,2.69,-0.05
2025-05-24 15:38:14.118,-96.12,-38.07,141.98,7.35,-6.20,-1.27,-0.30,-5.18,2.69,-0.16
2025-05-24 15:38:14.230,-96.12,-38.07,141.98,7.12,-5.43,-0.43,0.27,-5.35,2.69,-0.63
2025-05-24 15:38:15.330,-96.72,-56.20,136.55,8.12,-4.86,-0.62,0.27,-6.92,2.69,0.11
2025-05-24 15:38:15.440,-96.72,-56.20,136.55,7.81,-4.93,-1.12,-0.12,-7.19,2.44,-0.11
2025-05-24 15:38:15.524,-96.72,-56.20,136.55,7.81,-4.93,-1.12,-0.12,-7.19,2.69,0.16
2025-05-24 15:38:15.627,-96.72,-56.20,136.55,7.77,-3.78,-1.20,-0.12,-7.23,2.69,-0.14
2025-05-24 15:38:15.730,-96.72,-56.20,136.55,8.62,-4.24,-0.39,-0.12,-6.52,2.69,-0.09
2025-05-24 15:38:15.826,-96.72,-56.20,136.55,8.62,-4.24,-0.39,-0.12,-6.52,2.69,-0.10
2025-05-24 15:38:15.927,-96.72,-56.20,136.55,8.58,-3.25,-0.62,-0.12,-6.55,2.69,-0.10
2025-05-24 15:38:15.028,-96.72,-56.20,136.55,8.77,-2.71,-0.93,-0.12,-6.41,2.69,-0.10
2025-05-24 15:38:15.130,-96.72,-56.20,136.55,9.39,-2.17,-1.12,-0.12,-5.99,2.69,-0.10
2025-05-24 15:38:15.230,-96.72,-56.20,136.55,9.39,-2.17,-1.12,-0.12,-5.99,2.69,-0.09
2025-05-24 15:38:16.340,-110.47,-81.45,149.35,9.23,-0.79,-0.20,-0.09,-8.83,2.69,-0.29
2025-05-24 15:38:16.440,-110.47,-81.45,149.35,9.38,-0.14,0.26,-0.30,-8.68,2.44,-0.18
2025-05-24 15:38:16.550,-24.47,-86.45,61.23,9.49,0.16,0.18,-0.30,-9.11,2.69,-0.09
2025-05-24 15:38:16.635,-24.47,-86.45,61.23,9.49,0.16,0.18,-0.30,-9.11,2.69,0.51
2025-05-24 15:38:16.737,-24.47,-86.45,61.23,9.11,0.55,0.07,-0.30,-9.49,2.69,0.69
2025-05-24 15:38:16.058,-24.47,-86.45,61.23,9.11,0.55,0.07,0.01,-9.49,2.69,-0.25
2025-05-24 15:38:16.160,-24.47,-86.45,61.23,8.58,4.34,-0.89,0.01,-10.07,2.44,0.04
2025-05-24 15:38:16.258,-24.47,-86.45,61.23,8.62,3.42,-0.54,0.01,-10.03,2.69,0.74
2025-05-24 15:38:17.359,-24.47,-86.45,61.23,9.07,4.15,-1.46,0.01,-9.53,2.69,0.74
2025-05-24 15:38:17.471,107.09,-62.56,-59.83,8.46,4.34,-1.62,0.01,-7.39,2.69,0.14
2025-05-24 15:38:17.571,108.54,-61.66,-61.84,8.58,4.91,-1.20,0.01,-7.18,2.69,-0.21
2025-05-24 15:38:17.671,101.90,-60.03,-57.13,8.92,5.14,-1.39,0.01,-6.73,2.69,-0.56
2025-05-24 15:38:17.791,96.81,-54.54,-53.44,8.23,6.02,-1.08,-0.77,-6.62,2.69,0.58
2025-05-24 15:38:17.868,96.81,-54.54,-53.44,8.23,6.02,-1.08,-0.77,-6.62,2.69,-0.21
2025-05-24 15:38:17.968,96.81,-54.54,-53.44,6.01,3.77,1.10,-0.77,-9.07,2.69,-0.78
2025-05-24 15:38:17.068,96.81,-54.54,-53.44,6.59,7.25,0.37,-0.77,-8.28,2.69,-0.12
2025-05-24 15:38:17.171,96.81,-54.54,-53.44,5.05,7.94,0.11,-0.05,-10.79,2.69,-0.18
2025-05-24 15:38:17.268,96.81,-54.54,-53.44,5.05,7.94,0.11,-0.05,-10.79,2.69,0.28
2025-05-24 15:38:18.369,96.81,-54.54,-53.44,4.40,9.63,-0.28,-0.05,-12.39,2.69,0.28
2025-05-24 15:38:18.470,96.81,-54.54,-53.44,3.64,9.43,-0.05,-0.05,-15.00,2.69,0.03
2025-05-24 15:38:18.581,96.81,-54.54,-53.44,2.52,9.86,0.41,-0.37,-21.61,2.44,-0.13
2025-05-24 15:38:18.681,96.81,-54.54,-53.44,1.18,9.36,0.57,-0.22,-46.08,2.69,-0.37
2025-05-24 15:38:18.800,84.65,-5.25,-43.31,0.46,9.78,0.80,-0.22,-11.49,2.69,0.01
2025-05-24 15:38:18.878,84.65,-5.25,-43.31,0.46,10.23,0.64,-0.22,-11.49,2.44,-0.03
2025-05-24 15:38:18.978,84.65,-5.25,-43.31,-0.43,9.70,0.80,-0.22,12.34,2.69,-0.06
2025-05-24 15:38:18.079,84.11,3.12,-43.73,-0.43,9.70,0.80,-0.22,-7.32,2.69,0.12
2025-05-24 15:38:18.180,84.11,3.12,-43.73,-0.39,10.39,-0.28,0.04,-8.06,2.69,0.18
2025-05-24 15:38:19.301,86.24,-1.04,-45.73,0.07,10.43,1.06,0.68,-14.06,2.69,0.39
2025-05-24 15:38:19.381,86.24,-1.04,-45.73,-0.31,10.09,0.07,0.68,3.38,2.69,0.14
2025-05-24 15:38:19.481,86.24,-1.04,-45.73,1.72,9.47,0.76,0.68,-0.61,2.44,0.07
2025-05-24 15:38:19.590,90.50,3.65,-43.10,-1.57,10.73,-0.32,0.68,-2.32,2.69,0.08
2025-05-24 15:38:19.690,91.91,4.83,-44.30,-0.31,10.51,-0.28,0.68,-15.64,2.69,0.42
2025-05-24 15:38:19.787,91.91,4.83,-44.30,-0.31,10.51,-0.28,-0.23,-15.64,2.69,0.31
2025-05-24 15:38:19.887,91.91,4.83,-44.30,-1.84,9.55,-1.20,-0.23,-2.62,2.69,0.58
2025-05-24 15:38:19.989,91.91,4.83,-44.30,-4.25,8.24,-1.12,-0.23,-1.13,2.69,-0.28
2025-05-24 15:38:19.089,91.91,4.83,-44.30,-6.25,8.86,-2.12,-0.23,-0.77,2.69,0.16
2025-05-24 15:38:19.190,91.91,4.83,-44.30,-7.55,8.63,-2.46,-0.23,-0.64,2.69,0.22
2025-05-24 15:38:20.302,91.91,4.83,-44.30,-8.17,6.02,-1.70,-0.05,-0.59,2.69,-0.02
2025-05-24 15:38:20.389,91.91,4.83,-44.30,-7.97,3.80,-1.58,-0.05,-0.61,2.44,0.28
2025-05-24 15:38:20.491,118.19,71.72,-22.04,-9.50,2.54,-1.39,-0.05,-7.55,2.69,0.20
2025-05-24 15:38:20.602,118.19,71.72,-22.04,-10.35,1.96,-0.96,0.20,-6.93,2.44,-0.66
2025-05-24 15:38:20.702,118.19,71.72,-22.04,-10.65,0.47,-0.16,0.71,-6.73,2.69,-0.86
2025-05-24 15:38:20.820,-110.80,76.89,112.62,-9.58,-2.02,-0.93,0.71,-8.02,2.69,-0.81
2025-05-24 15:38:20.900,-110.80,76.89,112.62,-9.35,-2.44,-0.66,0.71,-8.22,2.69,-0.06
2025-05-24 15:38:20.999,-110.80,76.89,112.62,-9.46,-2.06,0.11,0.71,-8.12,2.69,-0.04
2025-05-24 15:38:20.101,-110.80,76.89,112.62,-11.19,-3.63,-1.27,-2.07,-6.87,2.69,-0.80
2025-05-24 15:38:20.201,-87.85,78.54,135.96,-8.43,-0.75,0.64,-2.07,-9.31,2.69,0.84
2025-05-24 15:38:21.321,-94.56,62.40,134.34,-9.12,-4.47,0.07,0.21,-6.84,2.44,0.12
2025-05-24 15:38:21.400,-94.56,62.40,134.34,-8.66,-7.65,0.64,0.21,-7.21,2.69,-0.92
2025-05-24 15:38:21.501,-94.56,62.40,134.34,-6.40,-5.93,-0.93,0.21,-9.75,2.69,0.10
2025-05-24 15:38:21.601,-94.56,62.40,134.34,-6.40,-5.93,-0.93,0.21,-9.75,2.69,-0.34
2025-05-24 15:38:21.703,-94.56,62.40,134.34,-6.40,-5.93,-0.93,0.21,-9.75,2.69,-0.57
2025-05-24 15:38:21.821,-94.56,62.40,134.34,-1.61,-9.72,-1.81,0.72,-38.68,2.69,0.35
2025-05-24 15:38:21.931,-102.09,5.56,136.72,-1.07,-9.64,-1.46,0.66,-5.18,2.69,0.16
2025-05-24 15:38:21.007,-102.09,5.56,136.72,-1.07,-9.64,-1.46,0.66,-5.18,2.69,0.03
2025-05-24 15:38:21.110,-102.09,5.56,136.72,0.19,-10.18,-1.58,0.66,29.66,2.69,0.14
2025-05-24 15:38:21.211,-102.09,5.56,136.72,0.27,-9.34,-1.39,0.66,20.94,2.69,-0.09
2025-05-24 15:38:22.309,-102.09,5.56,136.72,0.27,-9.34,-1.39,0.23,20.94,2.69,-0.48
2025-05-24 15:38:22.409,-102.09,5.56,136.72,0.34,-6.50,-4.37,1.00,16.36,2.69,-0.16
2025-05-24 15:38:22.512,-102.09,5.56,136.72,0.84,-10.02,-0.81,1.00,6.62,2.69,0.10
2025-05-24 15:38:22.611,-102.09,5.56,136.72,0.84,-10.02,-0.81,1.00,6.62,2.69,-0.08
2025-05-24 15:38:22.722,-102.09,5.56,136.72,0.19,-9.30,-0.85,-0.05,29.66,2.69,-0.09
2025-05-24 15:38:22.832,-102.09,5.56,136.72,0.38,-8.76,-1.77,1.09,14.68,2.69,0.15
2025-05-24 15:38:22.921,-102.09,5.56,136.72,-0.69,-9.83,0.11,1.09,-8.04,2.69,-0.40
2025-05-24 15:38:22.019,-102.09,5.56,136.72,-0.46,-8.88,-0.81,1.09,-11.96,2.69,0.02
2025-05-24 15:38:22.119,-102.09,5.56,136.72,-0.35,-8.72,-0.96,1.09,-16.00,2.44,0.09
2025-05-24 15:38:22.218,-102.09,5.56,136.72,-0.35,-8.72,-0.96,1.09,-16.00,2.69,0.34
2025-05-24 15:38:23.319,-94.60,-0.79,140.80,-0.00,-10.18,0.37,1.09,0.00,2.69,0.34
2025-05-24 15:38:23.420,-94.60,-0.79,140.80,0.11,-9.49,-0.39,1.09,-6.96,2.69,0.34
2025-05-24 15:38:23.521,-94.60,-0.79,140.80,0.04,-9.38,-0.73,1.09,-22.43,2.69,-0.05
2025-05-24 15:38:23.853,-94.73,-0.55,140.52,0.04,-9.45,-0.77,1.09,-15.53,2.69,-0.07
2025-05-24 15:38:23.962,-94.69,-0.51,140.49,0.07,-9.38,-0.62,0.03,-6.90,2.69,0.04
2025-05-24 15:38:23.062,-94.79,-0.49,140.48,-0.00,-9.42,-0.73,0.04,0.00,2.69,0.03
2025-05-24 15:38:23.171,-95.00,-0.45,140.47,0.07,-9.45,-0.81,-0.05,-6.06,2.69,0.03
2025-05-24 15:38:23.249,-95.00,-0.45,140.47,0.04,-9.45,-0.62,-0.05,-12.79,2.69,0.09
2025-05-24 15:38:24.350,-95.00,-0.45,140.47,0.11,-9.38,-0.58,-0.05,-3.97,2.69,0.03
2025-05-24 15:38:24.450,-95.00,-0.45,140.47,-0.00,-9.41,-0.66,-0.05,0.00,2.69,0.02
2025-05-24 15:38:24.549,-95.00,-0.45,140.47,-0.00,-9.41,-0.66,0.04,0.00,2.69,0.07
2025-05-24 15:38:24.651,-95.00,-0.45,140.47,0.04,-9.38,-0.66,0.04,-12.79,2.69,0.07
2025-05-24 15:38:24.751,-95.00,-0.45,140.47,0.04,-9.45,-0.70,0.04,-12.79,2.69,-0.04
2025-05-24 15:38:24.852,-95.00,-0.45,140.47,0.04,-9.45,-0.70,0.04,-12.79,2.69,0.06
2025-05-24 15:38:24.963,-95.00,-0.45,140.47,0.04,-9.45,-0.54,0.14,-12.79,2.69,0.04
2025-05-24 15:38:24.072,-93.48,-0.31,140.43,0.07,-9.41,-0.66,-0.08,-4.21,2.69,-0.01
2025-05-24 15:38:24.171,-93.50,-0.31,140.43,0.04,-9.42,-0.51,0.04,-8.71,2.69,-0.01
2025-05-24 15:38:24.259,-93.50,-0.31,140.43,0.11,-9.48,-0.58,0.04,-2.70,2.69,-0.06
2025-05-24 15:38:25.361,-93.50,-0.31,140.43,0.07,-9.41,-0.58,0.04,-4.13,2.69,0.03
2025-05-24 15:38:25.461,-93.50,-0.31,140.43,0.04,-9.42,-0.62,0.04,-8.71,2.69,0.02
2025-05-24 15:38:25.563,-93.50,-0.31,140.43,0.07,-9.41,-0.58,0.09,-4.13,2.69,0.03
2025-05-24 15:38:25.661,-93.50,-0.31,140.43,0.07,-9.41,-0.66,0.09,-4.13,2.69,-0.05
2025-05-24 15:38:25.761,-93.50,-0.31,140.43,0.04,-9.45,-0.62,0.09,-8.71,2.69,-0.05
2025-05-24 15:38:25.863,-93.50,-0.31,140.43,0.04,-9.38,-0.73,0.09,-8.71,2.69,-0.02
2025-05-24 15:38:25.972,-94.14,-0.28,140.48,0.07,-9.41,-0.62,0.09,-3.76,2.69,0.00
2025-05-24 15:38:25.073,-94.09,-0.28,140.48,0.11,-9.45,-0.66,0.09,-2.44,2.69,0.01
2025-05-24 15:38:25.182,-94.09,-0.28,140.48,0.11,-9.61,-0.54,0.00,-2.44,2.69,-0.01
2025-05-24 15:38:25.269,-94.09,-0.28,140.48,0.11,-9.61,-0.54,0.00,-2.44,2.69,0.02
2025-05-24 15:38:26.370,-94.09,-0.28,140.48,0.07,-9.42,-0.70,0.00,-3.72,2.69,-0.02
2025-05-24 15:38:26.472,-94.09,-0.28,140.48,-0.00,-9.48,-0.73,0.00,0.00,2.69,-0.04
2025-05-24 15:38:26.569,-94.37,-0.28,140.51,-0.00,-9.48,-0.73,0.00,0.00,2.69,-0.01
2025-05-24 15:38:26.671,-94.37,-0.28,140.51,0.04,-9.49,-0.73,0.08,-7.97,2.69,-0.09
2025-05-24 15:38:26.771,-94.37,-0.28,140.51,-0.00,-9.42,-0.70,0.08,0.00,2.69,-0.09
2025-05-24 15:38:26.872,-94.37,-0.28,140.51,0.07,-9.41,-0.81,0.08,-3.77,2.69,0.00
2025-05-24 15:38:26.973,-94.37,-0.28,140.51,0.07,-9.41,-0.81,0.08,-3.77,2.69,-0.00
2025-05-24 15:38:26.093,-94.58,-0.28,140.51,0.23,-9.38,-0.85,-0.01,-1.22,2.69,0.10
2025-05-24 15:38:26.193,-94.90,-0.28,140.51,0.11,-9.34,-0.81,0.05,-2.44,2.69,-0.05
2025-05-24 15:38:26.281,-94.90,-0.28,140.51,0.04,-9.30,-0.85,0.05,-7.86,2.69,0.03
2025-05-24 15:38:27.379,-94.90,-0.28,140.51,0.07,-9.42,-0.73,0.05,-3.72,2.69,0.05
2025-05-24 15:38:27.483,-94.90,-0.28,140.51,0.04,-9.38,-0.77,0.05,-7.86,2.69,0.02
2025-05-24 15:38:27.579,-94.90,-0.28,140.51,0.04,-9.38,-0.77,0.05,-7.86,2.69,0.01
2025-05-24 15:38:27.681,-94.90,-0.28,140.51,0.07,-9.38,-0.70,-0.02,-3.72,2.69,-0.06
2025-05-24 15:38:27.782,-94.90,-0.28,140.51,0.11,-9.49,-0.70,-0.02,-2.44,2.69,-0.06
2025-05-24 15:38:27.883,-94.90,-0.28,140.51,0.07,-9.45,-0.70,-0.02,-3.72,2.69,0.01
2025-05-24 15:38:27.993,-94.33,-0.29,140.48,0.04,-9.38,-0.70,-0.02,-8.28,2.69,0.03
2025-05-24 15:38:27.093,-94.14,-0.30,140.44,-0.00,-9.49,-0.85,-0.02,0.00,2.69,0.04
2025-05-24 15:38:27.190,-94.14,-0.30,140.44,-0.00,-9.60,-0.62,-0.02,0.00,2.69,0.34
2025-05-24 15:38:28.313,-88.47,-0.29,140.21,-0.00,-9.38,-0.01,-0.04,0.00,2.69,0.03
2025-05-24 15:38:28.390,-88.47,-0.29,140.21,-0.00,-9.38,-0.01,-0.04,0.00,2.69,1.23
2025-05-24 15:38:28.492,-88.47,-0.29,140.21,0.15,-10.14,4.21,-0.04,-1.93,2.69,1.02
2025-05-24 15:38:28.589,-88.47,-0.29,140.21,0.15,-10.14,4.21,-0.04,-1.93,2.69,1.12
2025-05-24 15:38:28.705,-88.47,-0.29,140.21,-0.04,-7.84,4.62,0.07,6.66,2.69,-0.13
2025-05-24 15:38:28.791,-88.47,-0.29,140.21,-0.04,-7.84,4.62,-0.25,6.66,2.44,-0.10
2025-05-24 15:38:28.892,-88.47,-0.29,140.21,0.04,-5.35,7.08,-0.25,-8.14,2.69,2.31
2025-05-24 15:38:28.994,-30.66,0.31,138.68,0.04,-5.35,7.08,-0.25,8.76,2.69,2.33
2025-05-24 15:38:28.114,-30.66,0.31,138.68,2.26,3.11,11.25,1.86,0.14,2.69,1.30
2025-05-24 15:38:28.214,-7.68,-2.94,139.00,0.19,0.01,9.11,1.86,-15.70,2.69,-0.13
2025-05-24 15:38:29.300,-7.68,-2.94,139.00,0.19,0.01,9.11,1.86,-15.70,2.69,-0.03
2025-05-24 15:38:29.401,-7.68,-2.94,139.00,-0.50,2.04,6.16,1.86,5.89,2.69,-0.11
2025-05-24 15:38:29.502,-7.68,-2.94,139.00,-0.50,2.04,6.16,1.86,5.89,2.69,0.12
2025-05-24 15:38:29.600,-3.74,1.13,139.64,-0.50,2.04,6.16,1.86,-2.26,2.69,-0.02
2025-05-24 15:38:29.701,-3.74,1.13,139.64,-0.31,-0.03,9.38,0.13,-3.66,2.69,-0.14
2025-05-24 15:38:29.804,-3.74,1.13,139.64,-0.31,-0.18,9.49,0.13,-3.66,2.69,-0.14
2025-05-24 15:38:29.902,-3.74,1.13,139.64,-0.31,-0.14,9.34,0.13,-3.66,2.69,0.01
2025-05-24 15:38:29.004,-3.74,1.13,139.64,-0.31,-0.14,9.34,0.13,-3.66,2.44,0.00
2025-05-24 15:38:29.113,-2.16,1.61,139.67,-0.27,-0.22,9.46,0.13,-5.96,2.69,-0.00
2025-05-24 15:38:29.224,-1.97,1.67,139.68,-0.31,-0.07,9.38,-0.07,-5.41,2.69,0.06
2025-05-24 15:38:30.334,-1.85,1.70,139.69,-0.35,-0.18,9.38,0.00,-4.90,2.69,-0.02
2025-05-24 15:38:30.412,-1.85,1.70,139.69,-0.27,-0.18,9.41,0.00,-6.32,2.69,0.00
2025-05-24 15:38:30.513,-1.85,1.70,139.69,-0.35,-0.18,9.42,0.00,-4.90,2.69,-0.00
2025-05-24 15:38:30.609,-1.85,1.70,139.69,-0.35,-0.18,9.42,0.00,-4.90,2.69,-0.00
2025-05-24 15:38:30.712,-1.56,1.82,139.71,-0.31,-0.14,9.41,0.00,-5.89,2.69,-0.00
2025-05-24 15:38:30.811,-1.56,1.82,139.71,-0.27,-0.14,9.41,0.00,-6.75,2.69,-0.03
2025-05-24 15:38:30.134,-1.56,1.82,139.71,-0.35,-0.22,9.49,0.31,-5.23,2.69,0.09
2025-05-24 15:38:30.233,-1.56,1.82,139.71,-0.31,-0.33,9.96,0.31,-5.89,2.69,0.01
2025-05-24 15:38:31.344,-1.31,1.89,139.73,-0.31,-0.26,9.34,0.31,-6.12,2.69,-0.01
2025-05-24 15:38:31.444,-1.31,1.89,139.73,-0.31,-0.14,9.45,-0.01,-6.12,2.69,-0.03
2025-05-24 15:38:31.564,-1.25,1.90,139.74,-0.31,-0.18,9.41,0.00,-6.15,2.69,0.00
2025-05-24 15:38:31.644,-1.25,1.90,139.74,-0.31,-0.22,9.42,0.00,-6.15,2.69,-0.00
2025-05-24 15:38:31.742,-1.25,1.90,139.74,-0.31,-0.18,9.45,0.00,-6.15,2.69,0.00
2025-05-24 15:38:31.844,-1.25,1.90,139.74,-0.35,-0.22,9.49,0.00,-5.46,2.44,0.01
2025-05-24 15:38:31.025,-1.25,1.90,139.74,-0.35,-0.22,9.49,0.00,-5.46,2.69,0.00
2025-05-24 15:38:31.134,-1.15,1.91,139.75,-0.31,-0.18,9.45,0.00,-6.19,2.69,0.00
2025-05-24 15:38:31.244,-1.13,1.93,139.75,-0.31,-0.18,9.38,0.00,-6.24,2.69,-0.00
2025-05-24 15:38:32.345,-1.13,1.93,139.75,-0.31,-0.14,9.38,-0.04,-6.24,2.69,0.02
2025-05-24 15:38:32.435,-1.13,1.93,139.75,-0.35,-0.18,9.38,0.00,-5.54,2.69,-0.02
2025-05-24 15:38:32.533,-1.13,1.93,139.75,-0.35,-0.22,9.38,0.00,-5.54,2.69,0.00
2025-05-24 15:38:32.634,-1.13,1.93,139.75,-0.27,-0.07,9.38,0.00,-7.14,2.44,0.00
2025-05-24 15:38:32.731,-1.13,1.93,139.75,-0.27,-0.07,9.38,0.00,-7.14,2.69,0.03
2025-05-24 15:38:32.832,-1.13,1.93,139.75,-0.23,0.55,9.30,-0.79,-8.21,2.69,-0.23
2025-05-24 15:38:32.933,-1.13,1.93,139.75,-0.39,-0.45,9.26,-0.98,-4.98,2.69,-0.50
2025-05-24 15:38:32.033,-1.13,1.93,139.75,-0.39,-0.45,9.26,-0.98,-4.98,2.69,0.03
