Timestamp,CarRoll,CarPitch,CarYaw,RollGrad,ax,ay,az,ForwardAccel,LateralAccel,HeaveAccel,PitchRate,RollRate,YawRate,qw,qx,qy,qz,ShockPot1,ShockPot2
1970-01-01 00:00:04.369,0.00,0.00,0.00,0.00,0.00,0.00,0.00,0.00,0.00,0.00,0.00,0.00,0.00,0.00,0.00,0.00,0.00,2.69,2.44
1970-01-01 00:00:04.480,0.00,0.00,0.00,0.00,9.84,0.45,-0.80,0.04,0.45,0.00,0.00,0.00,0.00,0.00,0.00,0.00,0.00,2.69,2.20
1970-01-01 00:00:04.600,-38.13,-86.20,122.92,-190.24,9.92,0.45,-0.88,0.04,0.45,0.05,0.45,0.45,1.90,0.53,0.45,-0.52,0.50,2.69,1.96
1970-01-01 00:00:04.702,-38.13,-86.20,122.92,-142.37,9.89,0.61,-0.80,0.00,0.61,0.05,0.34,-0.78,0.56,0.53,0.45,-0.52,0.50,2.69,1.96
1970-01-01 00:00:04.809,-38.13,-86.20,122.92,-163.47,9.77,0.53,-0.95,-0.03,0.53,-0.11,0.22,0.22,-1.01,0.53,0.45,-0.52,0.50,2.69,1.96
1970-01-01 00:00:04.920,-38.13,-86.20,122.92,-163.47,9.89,0.53,-0.88,0.04,0.53,0.04,0.00,0.78,-0.90,0.53,0.45,-0.52,0.50,2.69,1.96
1970-01-01 00:00:05.020,-35.88,-86.10,120.71,-142.21,9.93,0.61,-0.84,0.08,0.61,0.05,0.22,-0.45,-0.34,0.53,0.45,-0.52,0.50,2.69,1.96
1970-01-01 00:00:05.130,-35.88,-86.10,120.71,-125.95,9.77,0.68,-0.95,-0.07,0.68,-0.07,0.11,0.00,1.01,0.53,0.45,-0.52,0.50,2.69,1.96
1970-01-01 00:00:05.230,-34.50,-85.97,119.29,-125.76,9.77,0.68,-0.91,-0.07,0.68,-0.07,-0.45,0.78,2.01,0.53,0.45,-0.52,0.50,2.69,1.96
1970-01-01 00:00:05.340,-33.67,-85.89,118.38,-133.26,9.80,0.64,-0.88,-0.07,0.64,-0.07,-0.34,0.67,1.12,0.53,0.45,-0.52,0.50,2.69,1.96
1970-01-01 00:00:05.440,-33.67,-85.89,118.38,-141.86,9.88,0.61,-0.88,0.01,0.61,-0.04,-0.45,0.45,0.34,0.53,0.45,-0.52,0.50,2.69,1.96
1970-01-01 00:00:05.550,-33.67,-85.89,118.38,-151.64,9.73,0.57,-1.03,-0.11,0.57,-0.06,-0.45,0.78,1.12,0.53,0.45,-0.52,0.50,2.69,1.96
1970-01-01 00:00:05.671,-33.67,-85.89,118.38,-162.88,9.89,0.53,-0.91,0.02,0.53,0.05,0.22,0.11,-1.79,0.53,0.45,-0.52,0.50,2.69,1.96
1970-01-01 00:00:05.781,-34.61,-86.11,119.15,-174.96,9.85,0.49,-0.91,0.05,0.49,0.02,0.22,-0.11,-0.78,0.53,0.45,-0.52,0.50,2.69,1.96
1970-01-01 00:00:05.881,-34.86,-86.14,119.39,-163.35,9.89,0.53,-0.91,0.05,0.53,0.02,-0.45,-0.22,-0.22,0.53,0.45,-0.52,0.50,2.69,1.96
1970-01-01 00:00:05.990,-34.86,-86.14,119.39,-163.35,9.84,0.53,-0.95,0.05,0.53,0.03,-0.34,1.12,-1.34,0.53,0.45,-0.52,0.50,2.69,1.96
1970-01-01 00:00:06.101,-34.86,-86.14,119.39,-175.01,9.88,0.49,-0.95,0.00,0.49,0.03,-0.34,1.57,-2.91,0.53,0.45,-0.52,0.50,2.69,2.20
1970-01-01 00:00:06.209,-34.55,-86.63,118.90,-209.22,9.80,0.41,-0.84,-0.11,0.41,0.00,-3.02,2.46,-3.69,0.53,0.45,-0.52,0.49,2.69,1.96
1970-01-01 00:00:06.310,-35.28,-87.52,119.31,-334.42,9.77,0.26,-1.14,-0.11,0.26,0.00,-6.71,1.45,-13.09,0.53,0.46,-0.52,0.49,2.69,1.96
1970-01-01 00:00:06.421,-35.28,-87.52,119.31,-334.42,10.11,0.26,-1.14,0.32,0.26,0.02,-0.11,14.88,-14.55,0.53,0.46,-0.52,0.49,2.69,1.96
1970-01-01 00:00:06.521,-35.28,-87.52,119.31,-1244.79,9.85,0.07,-1.14,-0.00,0.07,0.28,1.68,11.30,-9.29,0.53,0.46,-0.52,0.49,2.69,1.96
1970-01-01 00:00:06.641,-112.46,-89.04,-166.37,-399.91,9.50,0.22,-1.26,-0.14,0.22,0.17,-3.58,2.91,3.58,0.53,0.46,-0.54,0.46,2.69,1.96
1970-01-01 00:00:06.741,-103.71,-90.00,-175.97,0.00,9.85,-0.01,-1.79,-0.32,-0.01,0.02,-7.39,6.71,4.36,0.54,0.46,-0.54,0.46,2.69,1.96
1970-01-01 00:00:06.850,-178.63,-89.63,-101.00,-1274.75,9.84,0.07,-1.56,-0.32,0.07,0.02,-1.12,1.34,-1.01,0.54,0.46,-0.54,0.45,2.69,1.96
1970-01-01 00:00:06.951,-178.63,-89.63,-101.00,1912.13,9.77,-0.05,-1.49,0.04,-0.05,0.09,0.67,-0.34,1.34,0.54,0.46,-0.54,0.45,2.69,2.20
1970-01-01 00:00:07.061,-178.63,-89.63,-101.00,0.00,9.80,-0.01,-1.49,-0.00,-0.01,0.15,0.34,-0.90,0.90,0.54,0.46,-0.54,0.45,2.69,1.96
1970-01-01 00:00:07.171,-178.65,-89.46,-99.67,0.00,9.77,-0.01,-1.52,-0.00,-0.01,0.15,0.45,0.11,1.12,0.54,0.46,-0.54,0.46,2.69,1.96
1970-01-01 00:00:07.281,-131.07,-90.00,-149.69,0.00,9.80,-0.01,-1.49,-0.00,-0.01,0.15,0.78,-0.45,1.12,0.54,0.46,-0.54,0.46,2.69,2.20
1970-01-01 00:00:07.391,-131.07,-90.00,-149.69,0.00,9.73,-0.01,-1.56,-0.06,-0.01,-0.09,-0.90,0.22,0.00,0.54,0.46,-0.54,0.46,2.69,1.96
1970-01-01 00:00:07.511,165.61,-90.00,-85.79,0.00,9.80,-0.01,-1.41,0.03,-0.01,0.05,-0.78,-0.67,-0.56,0.54,0.46,-0.54,0.46,2.69,1.96
1970-01-01 00:00:07.612,165.61,-90.00,-85.79,1097.14,9.70,-0.08,-1.41,-0.02,-0.08,0.04,0.56,-1.01,0.45,0.54,0.46,-0.54,0.46,2.69,1.96
1970-01-01 00:00:07.721,72.38,-89.39,9.58,82.91,10.77,-1.08,-1.29,0.59,-1.08,-0.07,-28.20,-26.97,20.59,0.54,0.47,-0.53,0.46,2.69,2.20
1970-01-01 00:00:07.830,72.38,-89.39,9.58,-57.21,9.28,1.56,-1.71,-0.73,1.56,-0.58,-9.40,1.57,-2.69,0.54,0.47,-0.53,0.46,2.69,1.96
1970-01-01 00:00:07.931,66.22,-84.98,17.93,-776.99,9.88,0.11,-1.14,-0.04,0.11,-0.18,2.46,3.92,-4.48,0.55,0.49,-0.50,0.46,2.69,1.96
1970-01-01 00:00:08.031,62.87,-85.15,21.42,-589.13,9.89,0.14,-1.10,-0.04,0.14,-0.18,2.46,2.46,-1.45,0.55,0.48,-0.50,0.46,2.69,1.96
1970-01-01 00:00:08.141,62.87,-85.15,21.42,-283.09,9.85,0.30,-1.10,-0.08,0.30,-0.13,1.79,0.67,-2.24,0.55,0.48,-0.50,0.46,2.69,2.20
1970-01-01 00:00:08.251,67.63,-85.75,16.62,-174.22,9.92,0.49,-1.10,-0.08,0.49,-0.13,3.25,-1.90,-5.71,0.55,0.49,-0.50,0.46,2.69,1.96
1970-01-01 00:00:08.362,67.63,-85.75,16.62,1045.31,9.89,-0.08,-0.18,0.02,-0.08,0.32,12.09,-38.94,-8.39,0.55,0.49,-0.50,0.46,2.69,1.96
1970-01-01 00:00:08.471,67.63,-85.75,16.62,1829.30,9.70,-0.05,-0.18,-0.26,-0.05,0.05,1.79,-17.12,-4.59,0.55,0.49,-0.50,0.46,2.69,1.96
1970-01-01 00:00:08.582,89.89,-88.10,1.89,1879.42,9.70,-0.05,0.54,-0.18,-0.05,0.33,13.76,-3.47,0.22,0.50,0.52,-0.48,0.50,2.69,2.20
1970-01-01 00:00:08.691,99.49,-88.54,-7.92,0.00,9.77,-0.01,-0.03,-0.18,-0.01,0.33,-0.11,1.23,-2.24,0.50,0.51,-0.49,0.50,2.69,1.96
1970-01-01 00:00:08.801,87.60,-88.63,3.94,0.00,9.96,-0.01,0.16,0.05,-0.01,-0.15,2.35,-1.45,4.70,0.50,0.51,-0.49,0.50,2.69,1.96
1970-01-01 00:00:08.902,87.60,-88.63,3.94,0.00,10.00,-0.01,0.20,0.09,-0.01,0.05,-2.91,1.57,-0.67,0.50,0.51,-0.49,0.50,2.69,1.96
1970-01-01 00:00:09.002,114.61,-88.67,-22.35,0.00,10.11,-0.01,0.39,0.09,-0.01,0.05,6.04,-13.76,-14.77,0.49,0.52,-0.49,0.50,2.69,1.96
1970-01-01 00:00:09.112,145.03,-87.26,-50.61,248.21,9.70,-0.35,0.62,-0.04,-0.35,-0.46,-0.34,-13.88,-13.65,0.48,0.54,-0.48,0.50,2.69,1.96
1970-01-01 00:00:09.221,145.03,-87.26,-50.61,102.47,9.73,-0.85,1.04,-0.24,-0.85,-0.09,22.94,-16.79,-16.56,0.48,0.54,-0.48,0.50,2.69,1.96
1970-01-01 00:00:09.332,-176.46,-84.45,-83.76,49.93,9.85,-1.69,1.85,0.25,-1.69,0.76,-3.25,-32.01,-6.27,0.43,0.57,-0.48,0.52,2.69,1.96
1970-01-01 00:00:09.451,157.68,-82.04,-52.38,677.49,10.19,-0.12,2.23,0.40,-0.12,-0.81,-40.40,-58.97,2.57,0.42,0.61,-0.44,0.51,2.69,2.20
1970-01-01 00:00:09.592,159.61,-85.11,-41.01,0.00,8.09,-0.01,4.68,-1.19,-0.01,0.14,10.85,-102.62,28.09,0.36,0.64,-0.37,0.58,2.69,1.96
1970-01-01 00:00:09.721,-164.97,-87.46,-66.38,-476.40,7.32,0.18,6.56,-0.04,0.18,0.13,6.38,-69.61,21.60,0.30,0.65,-0.32,0.63,2.69,1.96
1970-01-01 00:00:09.831,-100.70,-88.18,-128.25,550.58,7.35,-0.16,7.13,-0.04,-0.16,0.13,27.75,-28.31,18.35,0.28,0.64,-0.30,0.65,2.69,2.20
1970-01-01 00:00:09.942,-100.70,-88.18,-128.25,0.00,6.75,-0.01,5.71,-0.07,-0.01,-1.36,-34.91,-48.12,19.92,0.28,0.64,-0.30,0.65,2.69,1.96
1970-01-01 00:00:10.060,-100.70,-88.18,-128.25,-145.64,5.63,0.61,8.16,-0.45,0.61,0.08,-12.53,-70.05,-8.84,0.28,0.64,-0.30,0.65,2.69,2.20
1970-01-01 00:00:10.162,-100.70,-88.18,-128.25,-96.47,4.02,0.91,9.43,-0.05,0.91,0.06,1.45,-90.98,20.93,0.28,0.64,-0.30,0.65,2.69,2.20
1970-01-01 00:00:10.281,56.23,-82.24,112.60,-39.13,2.26,2.10,9.82,-1.90,2.10,0.89,-18.46,-119.63,-29.54,0.11,0.68,-0.03,0.72,2.69,1.96
1970-01-01 00:00:10.382,94.49,-83.45,82.58,-60.86,-0.23,1.37,10.23,-1.90,1.37,0.89,-23.28,-38.50,-28.20,0.06,0.71,0.02,0.70,2.69,1.96
1970-01-01 00:00:10.490,126.18,-85.95,59.73,-151.75,0.31,0.57,9.78,-1.90,0.57,0.89,36.15,-68.15,-12.53,-0.02,0.72,0.06,0.69,2.69,1.96
1970-01-01 00:00:10.592,126.18,-85.95,59.73,92.84,-2.87,-0.62,9.70,-0.44,-0.93,0.12,-0.90,-46.11,20.48,-0.02,0.72,0.06,0.69,2.69,1.96
1970-01-01 00:00:10.712,36.51,-87.94,165.91,1876.03,-3.71,-0.05,8.71,-1.21,-0.05,-0.13,-16.45,-100.60,53.60,-0.13,0.68,0.14,0.71,2.69,1.96
1970-01-01 00:00:10.822,21.76,-85.06,-176.65,38.14,-10.76,-2.23,9.93,0.06,-2.23,-0.53,-25.40,-120.75,51.81,-0.15,0.66,0.16,0.72,2.93,2.20
1970-01-01 00:00:10.932,28.89,-77.51,-172.50,944.84,-7.66,-0.08,8.85,4.14,-0.08,-0.88,-39.73,-20.59,12.87,-0.21,0.59,0.23,0.74,2.69,2.20
1970-01-01 00:00:11.042,28.89,-77.51,-172.50,50.36,-6.59,-1.54,6.56,0.92,-1.54,0.27,-35.25,-45.43,2.57,-0.21,0.59,0.23,0.74,2.69,1.96
1970-01-01 00:00:11.142,40.01,-72.50,-168.25,-112.49,-5.29,0.64,6.25,0.92,0.64,0.27,54.50,-49.80,73.63,-0.28,0.52,0.33,0.73,2.69,1.96
1970-01-01 00:00:11.252,49.64,-72.80,-174.85,601.17,-7.85,-0.12,6.06,0.92,-0.12,0.27,-14.66,-52.93,-1.79,-0.28,0.52,0.36,0.72,2.69,1.96
1970-01-01 00:00:11.361,56.21,-73.90,-175.12,118.98,-9.50,-0.62,4.91,-0.39,-0.62,0.52,21.49,-44.99,-10.41,-0.31,0.51,0.40,0.69,2.69,2.20
1970-01-01 00:00:11.462,59.63,-75.33,-175.80,81.37,-10.49,-0.93,5.48,-0.39,-0.93,0.52,-6.94,-27.08,-33.01,-0.33,0.52,0.41,0.68,2.69,1.96
1970-01-01 00:00:11.562,63.73,-75.67,-179.83,472.45,-9.00,-0.16,4.72,-0.39,-0.16,0.52,14.44,-18.13,9.96,-0.32,0.52,0.42,0.67,2.69,2.20
1970-01-01 00:00:11.670,63.73,-75.67,-179.83,-333.98,-7.01,-0.05,0.31,2.15,0.23,-3.41,21.26,-103.51,39.95,-0.32,0.52,0.42,0.67,2.69,1.96
1970-01-01 00:00:11.793,61.40,-76.37,-155.63,98.74,-10.54,-0.77,0.96,0.56,-0.77,-0.26,23.72,-143.91,21.15,-0.45,0.43,0.50,0.59,2.69,1.96
1970-01-01 00:00:11.903,61.41,-77.79,-144.97,65.08,-9.30,-1.20,-1.75,0.41,-1.20,0.05,17.90,-128.47,28.20,0.51,-0.40,-0.54,-0.54,2.69,1.96
1970-01-01 00:00:12.003,68.45,-80.28,-136.08,90.53,-8.70,-0.89,-3.82,0.85,-0.89,-0.29,30.44,-104.97,-2.69,0.57,-0.33,-0.60,-0.45,2.69,1.96
1970-01-01 00:00:12.112,77.11,-83.66,-129.28,178.47,-7.89,-0.47,-5.78,-0.18,-0.47,0.38,23.95,-140.67,-4.48,0.63,-0.27,-0.64,-0.35,2.69,1.96
1970-01-01 00:00:12.222,88.50,-86.23,-129.06,171.12,-6.05,-0.50,-7.62,0.34,-0.50,-0.23,23.05,-88.41,-3.25,0.66,-0.22,-0.67,-0.27,2.69,1.96
1970-01-01 00:00:12.323,114.80,-88.08,-146.00,187.90,-4.33,-0.47,-8.15,0.89,-0.47,0.18,19.92,-95.34,-5.15,0.67,-0.18,-0.69,-0.20,2.69,1.96
1970-01-01 00:00:12.433,-21.34,-88.17,-1.90,322.45,-4.06,-0.27,-8.19,0.89,-0.27,0.18,33.80,-59.76,19.36,0.70,-0.14,-0.68,-0.14,2.69,2.20
1970-01-01 00:00:12.541,-44.92,-85.53,27.95,-228.08,-3.06,0.37,-9.03,0.89,0.37,0.18,14.10,-37.82,2.13,0.72,-0.12,-0.68,-0.09,2.69,1.96
1970-01-01 00:00:12.643,-44.92,-85.53,27.95,-228.08,-0.80,0.37,-9.07,2.43,0.37,0.32,15.89,-50.81,7.05,0.72,-0.12,-0.68,-0.09,2.69,1.71
1970-01-01 00:00:12.750,-44.92,-85.53,27.95,-534.04,-0.57,1.11,-9.34,-0.04,0.16,0.40,19.02,-155.55,-21.15,0.72,-0.12,-0.68,-0.09,2.69,1.96
1970-01-01 00:00:12.850,-44.92,-85.53,27.95,51.04,-1.87,-0.12,-2.56,-3.50,-1.68,6.97,56.18,-171.44,-25.96,0.72,-0.12,-0.68,-0.09,2.69,1.96
1970-01-01 00:00:12.951,-44.92,-85.53,27.95,97.31,3.34,0.53,-10.22,-0.59,-0.88,-1.37,-2.91,-140.33,9.96,0.72,-0.12,-0.68,-0.09,2.69,1.96
1970-01-01 00:00:13.053,-44.92,-85.53,27.95,-21.42,7.16,5.62,-9.07,1.02,3.99,-1.64,33.12,-193.60,-20.25,0.72,-0.12,-0.68,-0.09,2.69,2.20
1970-01-01 00:00:13.153,-44.92,-85.53,27.95,-151.00,8.96,0.57,-3.71,-0.22,0.57,-0.69,-10.30,-75.09,-20.70,0.72,-0.12,-0.68,-0.09,2.69,2.20
1970-01-01 00:00:13.262,-38.76,-84.55,107.55,-85.55,10.73,0.99,-4.97,1.93,0.99,-0.94,-9.29,-42.19,-27.31,0.59,0.37,-0.57,0.43,2.69,2.20
1970-01-01 00:00:13.373,-53.05,-87.55,126.51,-154.58,9.54,0.57,-2.90,-0.84,0.57,0.72,-18.80,-11.30,-20.14,0.57,0.41,-0.57,0.44,2.69,1.96
1970-01-01 00:00:13.482,-25.12,-87.14,98.10,-153.85,9.20,0.57,-2.83,0.23,0.57,0.07,-2.35,1.12,0.67,0.58,0.40,-0.56,0.44,2.69,1.96
1970-01-01 00:00:13.583,-18.05,-88.96,92.27,-1265.20,9.89,0.07,-2.90,0.26,0.07,-0.22,-5.82,0.56,-10.30,0.57,0.42,-0.56,0.43,2.69,1.96
1970-01-01 00:00:13.692,-18.05,-88.96,92.27,-180.74,9.50,0.49,-2.06,0.50,0.49,0.15,-7.16,-13.20,1.79,0.57,0.42,-0.56,0.43,2.69,1.96
1970-01-01 00:00:13.802,145.76,-88.79,-69.51,-398.79,9.62,0.22,-2.10,0.50,0.22,0.15,6.38,-9.74,-38.83,0.55,0.44,-0.56,0.43,2.69,1.96
1970-01-01 00:00:13.903,145.76,-88.79,-69.51,82.36,9.58,-1.08,-1.64,0.23,-1.08,0.39,9.74,-11.30,-35.81,0.55,0.44,-0.56,0.43,2.69,2.20
1970-01-01 00:00:14.013,-152.67,-83.99,-129.57,94.72,9.96,-0.89,-2.14,-0.05,-0.89,0.09,21.26,-7.27,-2.46,0.51,0.45,-0.59,0.44,2.44,2.20
1970-01-01 00:00:14.122,-142.57,-83.35,-140.19,165.41,9.73,-0.50,-2.10,0.64,-0.50,-0.24,12.87,0.22,-1.34,0.51,0.44,-0.59,0.44,2.44,1.96
1970-01-01 00:00:14.224,-141.04,-81.78,-142.77,209.34,10.08,-0.39,-2.37,0.64,-0.39,-0.24,13.65,7.61,-4.48,0.50,0.43,-0.61,0.44,2.69,1.96
1970-01-01 00:00:14.333,-141.04,-81.78,-142.77,100.65,8.93,-0.81,-2.90,-0.32,-0.81,-0.57,20.14,2.24,-10.52,0.50,0.43,-0.61,0.44,2.69,1.96
1970-01-01 00:00:14.441,-152.13,-79.74,-131.83,71.37,9.20,-1.12,-2.37,-0.32,-1.12,-0.57,-22.38,-0.78,-19.70,0.49,0.45,-0.62,0.42,2.69,2.20
1970-01-01 00:00:14.543,-152.13,-79.74,-131.83,53.16,9.38,-1.50,-2.21,0.22,-1.50,0.13,-21.71,9.18,-0.78,0.49,0.45,-0.62,0.42,2.69,2.20
1970-01-01 00:00:14.653,179.62,-79.50,-104.96,55.76,9.85,-1.43,-2.87,0.22,-1.43,0.13,-26.97,17.35,-19.47,0.51,0.47,-0.61,0.39,2.69,2.20
1970-01-01 00:00:14.763,174.17,-79.09,-100.04,42.80,8.70,-1.85,-2.45,0.22,-1.85,0.13,8.95,-2.57,11.19,0.51,0.47,-0.61,0.38,2.69,1.96
1970-01-01 00:00:14.864,174.17,-79.09,-100.04,135.88,10.84,-0.58,-2.71,1.14,-0.58,-0.25,-5.15,9.06,34.02,0.51,0.47,-0.61,0.38,2.69,2.20
1970-01-01 00:00:14.973,179.06,-82.81,-102.67,71.62,9.73,-1.16,-1.98,1.14,-1.16,-0.25,4.36,-9.51,-1.79,0.52,0.46,-0.59,0.41,2.69,1.96
1970-01-01 00:00:15.083,-176.73,-83.18,-106.46,97.68,9.46,-0.85,-2.45,0.05,-0.85,-0.27,3.13,-6.27,2.46,0.52,0.46,-0.59,0.41,2.69,2.20
1970-01-01 00:00:15.193,-177.43,-83.47,-104.73,94.14,9.66,-0.89,-2.02,0.05,-0.89,-0.27,-6.49,-4.48,0.67,0.52,0.47,-0.58,0.42,2.69,2.20
1970-01-01 00:00:15.304,-177.43,-83.47,-104.73,80.04,9.92,-1.04,-2.21,0.30,-1.04,-0.14,1.12,1.68,3.92,0.52,0.47,-0.58,0.42,2.69,2.20
1970-01-01 00:00:15.404,-177.43,-83.47,-104.73,98.02,9.77,-0.85,-2.06,0.18,-0.85,0.11,-0.90,1.12,2.13,0.52,0.47,-0.58,0.42,2.69,1.96
1970-01-01 00:00:15.524,179.17,-83.78,-101.04,80.33,9.54,-1.04,-1.95,0.01,-1.04,0.05,-0.22,0.11,1.79,0.52,0.47,-0.58,0.42,2.44,1.96
1970-01-01 00:00:15.633,176.86,-83.98,-98.60,90.71,9.46,-0.93,-1.83,0.28,-0.93,-0.18,-7.16,-4.70,-4.36,0.52,0.47,-0.58,0.42,2.69,1.96
1970-01-01 00:00:15.764,169.86,-83.60,-91.24,60.29,9.58,-1.39,-1.91,-0.01,-1.39,0.02,-8.39,-2.46,0.56,0.52,0.48,-0.57,0.42,2.69,2.20
1970-01-01 00:00:15.874,158.70,-83.07,-79.80,77.05,9.54,-1.08,-1.64,-0.25,-1.08,0.40,-12.87,3.25,5.71,0.52,0.49,-0.57,0.41,2.69,1.96
1970-01-01 00:00:15.983,146.39,-82.59,-67.57,82.27,9.58,-1.00,-1.83,-0.25,-1.00,0.40,-8.95,1.45,2.01,0.53,0.49,-0.56,0.40,2.69,2.20
1970-01-01 00:00:16.093,142.12,-83.40,-63.21,107.83,9.80,-0.77,-2.02,0.11,-0.77,-0.16,-0.67,-1.68,6.27,0.54,0.49,-0.55,0.41,2.69,2.20
1970-01-01 00:00:16.202,136.16,-83.71,-56.02,166.11,9.80,-0.50,-1.71,0.11,-0.50,-0.16,-7.05,-14.44,1.01,0.54,0.49,-0.54,0.42,2.69,1.96
1970-01-01 00:00:16.322,134.84,-83.44,-53.48,80.01,9.66,-1.04,-1.18,-0.09,-1.04,0.12,-1.57,-10.07,7.83,0.53,0.50,-0.54,0.42,2.69,1.96
1970-01-01 00:00:16.423,144.53,-83.84,-61.64,58.81,9.70,-1.43,-1.56,-0.09,-1.43,-0.07,10.63,-9.18,-5.15,0.52,0.50,-0.54,0.43,2.69,1.96
1970-01-01 00:00:16.524,142.67,-84.58,-58.56,115.17,9.96,-0.73,-1.03,-0.09,-0.73,-0.07,8.62,-15.22,-3.25,0.52,0.51,-0.53,0.44,2.69,1.96
1970-01-01 00:00:16.634,142.67,-84.58,-58.56,95.38,9.77,-0.89,-0.91,0.10,-0.89,-0.02,2.35,-0.67,-2.69,0.52,0.51,-0.53,0.44,2.69,1.96
1970-01-01 00:00:16.744,142.67,-84.58,-58.56,104.09,9.85,-0.81,-1.10,-0.07,-0.81,-0.16,1.01,-1.34,-2.24,0.52,0.51,-0.53,0.44,2.69,2.20
1970-01-01 00:00:16.844,142.67,-84.58,-58.56,115.17,9.88,-0.73,-0.91,0.05,-0.73,-0.02,1.79,-1.79,-1.90,0.52,0.51,-0.53,0.44,2.69,2.20
1970-01-01 00:00:16.963,154.20,-84.56,-69.20,99.30,9.92,-0.85,-1.03,0.05,-0.85,-0.02,1.45,-2.46,-2.46,0.51,0.51,-0.53,0.45,2.69,2.20
1970-01-01 00:00:17.064,154.20,-84.56,-69.20,91.34,9.81,-0.93,-0.99,0.09,-0.93,-0.08,-1.57,1.45,1.34,0.51,0.51,-0.53,0.45,2.69,1.96
1970-01-01 00:00:17.174,146.78,-84.47,-61.72,95.27,9.84,-0.89,-0.95,0.09,-0.89,-0.08,-7.72,-1.45,2.35,0.51,0.51,-0.53,0.44,2.69,1.96
1970-01-01 00:00:17.284,146.78,-84.47,-61.72,115.03,9.62,-0.73,-0.95,-0.16,-0.73,-0.11,-13.99,-5.04,2.13,0.51,0.51,-0.53,0.44,2.69,1.96
1970-01-01 00:00:17.402,118.58,-83.34,-33.02,213.36,9.96,-0.39,-0.64,0.05,-0.39,0.26,-3.47,2.13,5.04,0.53,0.52,-0.51,0.44,2.69,1.96
1970-01-01 00:00:17.504,118.58,-83.34,-33.02,153.50,9.81,-0.54,-0.95,0.05,-0.54,0.26,1.90,2.91,1.57,0.53,0.52,-0.51,0.44,2.69,1.71
1970-01-01 00:00:17.614,118.68,-84.03,-33.35,179.26,9.89,-0.47,-0.88,-0.02,-0.47,-0.05,3.13,-1.01,2.24,0.53,0.51,-0.51,0.44,2.69,2.20
1970-01-01 00:00:17.714,118.79,-84.32,-33.50,196.23,9.88,-0.43,-0.88,0.05,-0.43,0.03,1.23,2.13,2.57,0.53,0.51,-0.51,0.44,2.69,2.20
1970-01-01 00:00:17.824,118.36,-84.60,-33.08,167.89,9.81,-0.50,-0.80,-0.16,-0.50,-0.05,2.57,-0.56,3.25,0.53,0.51,-0.51,0.45,2.69,1.96
1970-01-01 00:00:17.934,118.36,-84.60,-33.08,424.67,9.93,-0.20,-0.72,0.02,-0.20,0.15,0.22,0.22,2.35,0.53,0.51,-0.51,0.45,2.69,2.20
1970-01-01 00:00:18.045,118.16,-84.96,-32.94,217.49,9.81,-0.39,-0.91,0.02,-0.39,-0.16,1.79,1.01,-0.67,0.53,0.51,-0.51,0.45,2.69,1.96
1970-01-01 00:00:18.145,119.57,-85.05,-34.28,197.94,9.84,-0.43,-0.72,-0.03,-0.43,-0.01,0.90,-1.45,-1.01,0.53,0.51,-0.51,0.45,2.69,1.96
1970-01-01 00:00:18.254,120.38,-85.16,-35.17,181.67,9.85,-0.47,-0.88,-0.03,-0.47,-0.01,-0.67,-0.22,1.23,0.53,0.51,-0.51,0.45,2.69,1.96
1970-01-01 00:00:18.365,119.83,-85.42,-34.57,218.67,9.88,-0.39,-0.76,0.13,-0.39,-0.07,5.04,2.13,-1.23,0.53,0.51,-0.51,0.45,2.69,1.96
1970-01-01 00:00:18.483,123.35,-85.80,-38.28,199.68,9.81,-0.43,-1.03,0.03,-0.43,-0.13,1.68,0.90,0.56,0.52,0.50,-0.52,0.45,2.69,1.96
1970-01-01 00:00:18.584,123.35,-85.80,-38.28,219.65,9.96,-0.39,-0.88,0.03,-0.39,-0.13,-0.11,0.45,0.67,0.52,0.50,-0.52,0.45,2.69,1.96
1970-01-01 00:00:18.694,123.92,-85.96,-38.64,183.38,9.89,-0.47,-1.03,0.03,-0.47,-0.17,-0.56,-0.90,-1.12,0.52,0.50,-0.52,0.45,2.69,1.96
1970-01-01 00:00:18.794,123.92,-85.96,-38.64,65.69,9.34,-1.31,0.28,-0.16,-1.31,0.47,-22.83,1.01,-17.35,0.52,0.50,-0.52,0.45,2.69,2.20
1970-01-01 00:00:18.905,123.92,-85.96,-38.64,23.82,10.23,-3.61,0.77,0.29,-3.61,2.89,-56.40,-8.95,-65.13,0.52,0.50,-0.52,0.45,2.69,2.20
1970-01-01 00:00:19.014,123.92,-85.96,-38.64,49.67,9.80,-1.73,-0.72,-0.26,-1.73,-1.45,-230.41,-111.23,-55.17,0.52,0.50,-0.52,0.45,2.69,1.96
1970-01-01 00:00:19.125,123.16,-23.44,-17.60,4.33,7.59,-5.41,4.84,-0.45,-5.41,0.08,-251.68,-27.19,-129.92,0.49,0.84,-0.23,0.11,2.69,1.96
1970-01-01 00:00:19.234,131.77,13.94,-12.05,-6.25,6.14,-2.23,4.68,-0.39,-2.23,-2.31,-333.93,-115.82,-315.35,0.39,0.91,-0.05,-0.15,2.69,1.96
1970-01-01 00:00:19.343,131.77,13.94,-12.05,-4.27,9.27,-3.26,6.14,2.71,-3.26,-2.08,-190.46,-80.12,-320.27,0.39,0.91,-0.05,-0.15,2.69,1.96
1970-01-01 00:00:19.444,-25.30,86.08,169.35,1224.21,0.65,0.07,10.80,0.49,0.07,-0.17,-113.25,-63.90,-133.50,-0.08,-0.68,-0.10,0.72,2.69,1.96
1970-01-01 00:00:19.563,-22.19,78.97,172.37,-224.62,3.76,-0.35,8.36,-0.15,-0.35,-0.56,30.55,41.96,-57.18,-0.07,-0.63,-0.11,0.76,2.69,1.96
1970-01-01 00:00:19.665,-15.06,79.84,-176.88,111.08,4.98,0.72,8.20,0.92,0.72,-0.05,6.94,57.07,39.73,-0.10,-0.63,-0.12,0.76,2.69,2.20
1970-01-01 00:00:19.775,-15.06,79.84,-176.88,46.56,2.95,1.71,9.31,-0.86,1.71,1.10,-32.23,24.62,27.53,-0.10,-0.63,-0.12,0.76,2.69,2.20
1970-01-01 00:00:19.885,-44.43,82.81,155.56,83.79,3.60,0.99,9.05,0.10,0.99,-0.36,3.92,14.77,18.13,-0.10,-0.66,-0.15,0.73,2.69,2.20
1970-01-01 00:00:19.986,-44.11,83.49,155.62,184.25,2.80,0.45,9.36,-0.43,0.45,0.06,2.24,-9.18,3.69,-0.10,-0.66,-0.14,0.73,2.69,1.96
1970-01-01 00:00:20.106,-37.93,83.59,161.21,455.30,2.91,0.18,9.24,-0.08,0.18,-0.17,3.25,-4.92,-1.68,-0.10,-0.66,-0.14,0.73,2.69,1.96
1970-01-01 00:00:20.225,-34.13,83.58,165.11,-1018.91,3.22,-0.08,9.62,-0.07,-0.08,0.37,-1.23,-1.34,-9.06,-0.10,-0.66,-0.13,0.73,2.69,1.96
1970-01-01 00:00:20.345,-34.68,82.08,163.69,2626.63,3.34,0.03,9.20,-0.00,0.03,-0.10,-10.85,-8.84,-6.27,-0.09,-0.65,-0.13,0.74,2.69,1.96
1970-01-01 00:00:20.454,-36.48,81.46,160.50,134.54,2.76,0.61,9.16,-0.49,0.61,-0.07,-7.83,-15.67,0.78,-0.08,-0.65,-0.13,0.74,2.69,1.96
1970-01-01 00:00:20.555,-36.48,81.46,160.50,744.76,2.45,0.11,9.59,-0.19,0.11,0.05,4.25,-12.76,-14.88,-0.08,-0.65,-0.13,0.74,2.69,1.96
1970-01-01 00:00:20.664,-26.43,80.72,168.86,0.00,2.30,-0.01,9.78,-0.19,-0.01,0.25,-4.92,-9.29,-1.45,-0.08,-0.64,-0.11,0.75,2.69,1.96
1970-01-01 00:00:20.765,-26.43,80.72,168.86,738.00,2.15,0.11,9.74,-0.23,0.11,0.14,-4.70,-4.92,1.23,-0.08,-0.64,-0.11,0.75,2.69,1.96
1970-01-01 00:00:20.875,-29.43,79.78,164.14,304.83,2.11,0.26,9.70,-0.23,0.26,0.14,-5.15,-4.81,-4.70,-0.06,-0.64,-0.11,0.76,2.69,1.96
1970-01-01 00:00:20.985,-27.38,79.90,165.60,131.96,2.15,0.61,9.59,-0.23,0.61,0.14,-3.25,-4.70,0.34,-0.06,-0.64,-0.10,0.76,2.69,1.96
1970-01-01 00:00:21.105,-27.38,79.90,165.60,1136.33,1.30,0.07,9.97,-0.37,0.07,0.10,7.39,-10.18,4.36,-0.06,-0.64,-0.10,0.76,2.69,1.96
1970-01-01 00:00:21.206,-22.48,80.94,169.05,240.93,1.88,0.34,9.73,-0.30,0.34,0.10,-1.45,2.57,2.35,-0.05,-0.65,-0.09,0.75,2.69,2.20
1970-01-01 00:00:21.315,-22.93,80.98,168.80,309.42,1.92,0.26,9.70,-0.07,0.26,0.08,-0.11,4.25,0.56,-0.06,-0.65,-0.09,0.75,2.69,2.20
1970-01-01 00:00:21.415,-21.04,80.84,170.63,308.86,1.96,0.26,9.66,-0.07,0.26,0.08,2.35,3.80,-3.36,-0.06,-0.65,-0.09,0.76,2.69,1.96
1970-01-01 00:00:21.525,-21.04,80.84,170.63,559.29,2.03,0.14,9.70,-0.04,0.14,0.09,0.56,1.01,-0.78,-0.06,-0.65,-0.09,0.76,2.69,2.20
1970-01-01 00:00:21.643,-19.95,80.72,171.73,439.65,1.77,0.18,9.78,-0.18,0.18,0.04,-1.68,-2.57,-0.22,-0.06,-0.65,-0.09,0.76,2.69,1.96
1970-01-01 00:00:21.754,-20.30,80.45,171.12,307.39,1.80,0.26,9.73,-0.05,0.26,0.05,-1.57,-0.78,-2.80,-0.06,-0.64,-0.08,0.76,2.69,1.96
1970-01-01 00:00:21.865,-20.06,80.32,171.07,360.75,1.80,0.22,9.62,-0.09,0.22,0.01,-1.01,-0.67,2.24,-0.05,-0.64,-0.08,0.76,2.69,1.96
1970-01-01 00:00:21.975,-19.75,80.34,170.85,437.60,1.61,0.18,9.81,-0.19,0.18,0.04,-0.22,0.11,-1.57,-0.05,-0.64,-0.08,0.76,2.69,1.96
1970-01-01 00:00:22.076,-19.75,80.34,170.85,2570.89,1.61,0.03,9.89,-0.03,0.03,0.11,-1.57,-1.23,-1.01,-0.05,-0.64,-0.08,0.76,2.69,2.20
1970-01-01 00:00:22.185,-21.81,80.13,168.54,176.83,1.84,0.45,9.62,-0.03,0.45,0.11,-3.36,-1.79,0.22,-0.05,-0.64,-0.08,0.76,2.69,1.96
1970-01-01 00:00:22.286,-22.16,80.07,167.82,238.35,1.54,0.34,9.73,-0.03,0.34,0.11,-0.90,-2.01,-0.56,-0.04,-0.64,-0.08,0.76,2.69,2.20
1970-01-01 00:00:22.395,-22.04,79.86,167.72,265.50,1.69,0.30,9.82,0.16,0.30,-0.04,-0.78,-1.79,-1.68,-0.04,-0.64,-0.08,0.76,2.69,2.20
1970-01-01 00:00:22.505,-22.04,79.76,167.52,192.63,1.54,0.41,9.73,-0.22,0.41,0.10,-2.01,-4.70,-2.13,-0.04,-0.64,-0.08,0.76,2.69,2.20
1970-01-01 00:00:22.614,-22.11,79.77,167.48,212.72,1.54,0.37,9.77,0.05,0.37,0.02,0.00,3.25,0.34,-0.04,-0.64,-0.08,0.76,2.69,2.20
1970-01-01 00:00:22.716,-22.10,79.85,167.45,176.23,1.54,0.45,9.73,0.05,0.45,0.02,-0.78,-0.56,0.34,-0.04,-0.64,-0.08,0.76,2.69,1.96
1970-01-01 00:00:22.835,-22.26,79.84,167.30,434.85,1.54,0.18,9.86,-0.16,0.18,0.17,-0.90,1.23,1.01,-0.04,-0.64,-0.08,0.76,2.69,1.96
1970-01-01 00:00:22.936,-22.67,79.90,166.97,162.34,1.77,0.49,9.62,0.09,0.49,-0.10,1.12,-0.22,-1.45,-0.04,-0.64,-0.08,0.76,2.69,1.96
1970-01-01 00:00:23.045,-22.67,79.90,166.97,213.07,1.73,0.37,9.70,0.19,0.37,-0.14,-0.78,-3.36,-0.78,-0.04,-0.64,-0.08,0.76,2.69,1.96
1970-01-01 00:00:23.155,-22.39,79.93,166.94,193.03,1.69,0.41,9.66,-0.15,0.41,0.05,-0.22,-1.23,0.00,-0.04,-0.64,-0.08,0.76,2.69,2.20
1970-01-01 00:00:23.256,-22.39,79.93,166.94,237.93,1.57,0.34,9.78,-0.03,0.34,0.02,-0.45,-0.11,-0.22,-0.04,-0.64,-0.08,0.76,2.69,1.96
1970-01-01 00:00:23.366,-22.39,79.93,166.94,237.93,1.57,0.34,9.89,0.05,0.34,0.10,0.45,-0.56,-0.67,-0.04,-0.64,-0.08,0.76,2.69,1.96
1970-01-01 00:00:23.475,-22.13,79.79,167.09,162.11,1.80,0.49,9.62,-0.02,0.49,-0.07,-0.22,-1.23,-1.57,-0.04,-0.64,-0.08,0.76,2.69,1.96
1970-01-01 00:00:23.585,-21.82,79.72,167.54,265.04,1.80,0.30,9.66,-0.02,0.30,-0.07,0.56,4.03,-0.67,-0.04,-0.64,-0.08,0.76,2.69,1.96
1970-01-01 00:00:23.685,-20.86,79.67,168.47,357.80,1.61,0.22,9.89,-0.02,0.22,-0.07,1.12,-0.45,-1.12,-0.04,-0.64,-0.08,0.76,2.69,1.96
1970-01-01 00:00:23.795,-21.34,79.59,167.88,192.21,1.54,0.41,9.73,-0.01,0.41,0.00,-1.01,-0.56,-0.34,-0.04,-0.64,-0.08,0.76,2.69,2.20
1970-01-01 00:00:23.896,-22.10,79.54,167.06,192.10,1.61,0.41,9.74,-0.01,0.41,0.00,-0.90,0.11,-0.11,-0.04,-0.64,-0.08,0.76,2.69,2.20
1970-01-01 00:00:24.015,-22.39,79.61,166.83,150.97,1.54,0.53,9.77,0.18,0.53,-0.10,-0.11,1.79,1.79,-0.04,-0.64,-0.08,0.76,2.69,1.96
1970-01-01 00:00:24.116,-22.88,79.62,166.33,161.78,1.69,0.49,9.70,0.18,0.49,-0.10,-0.78,0.45,0.90,-0.04,-0.64,-0.08,0.76,2.69,2.20
1970-01-01 00:00:24.236,-22.75,79.56,166.36,212.16,1.61,0.37,9.66,-0.30,0.37,0.13,-0.56,-1.57,-1.34,-0.04,-0.64,-0.08,0.76,2.69,2.20
1970-01-01 00:00:24.336,-22.90,79.53,166.20,175.52,1.61,0.45,9.81,0.13,0.45,-0.06,0.11,0.34,0.34,-0.04,-0.64,-0.08,0.76,2.69,1.96
1970-01-01 00:00:24.446,-23.09,79.54,165.84,212.12,1.57,0.37,9.78,-0.07,0.37,0.05,-0.56,0.78,-0.45,-0.03,-0.64,-0.08,0.76,2.69,1.96
1970-01-01 00:00:24.546,-23.09,79.54,165.84,192.11,1.54,0.41,9.77,-0.07,0.41,0.06,0.34,-0.22,-0.67,-0.03,-0.64,-0.08,0.76,2.69,1.96
1970-01-01 00:00:24.656,-23.09,79.54,165.84,192.11,1.77,0.41,9.70,0.16,0.41,-0.02,-0.34,2.01,0.34,-0.03,-0.64,-0.08,0.76,2.69,2.20
1970-01-01 00:00:24.766,-22.44,79.43,166.46,211.82,1.65,0.37,9.78,0.16,0.37,-0.02,-0.11,-0.90,-1.12,-0.03,-0.64,-0.07,0.76,2.69,1.96
1970-01-01 00:00:24.867,-22.44,79.43,166.46,236.45,1.42,0.34,9.89,-0.12,0.34,0.08,-0.45,-2.35,0.00,-0.03,-0.64,-0.07,0.76,2.69,2.20
1970-01-01 00:00:24.977,-23.06,79.47,165.77,140.31,1.77,0.57,9.55,-0.12,0.57,0.08,-1.57,4.25,2.01,-0.03,-0.64,-0.07,0.76,2.69,2.20
1970-01-01 00:00:25.097,-22.73,79.56,166.17,304.01,1.54,0.26,9.85,0.03,0.26,0.10,1.23,-0.34,-1.12,-0.03,-0.64,-0.07,0.76,2.69,1.96
1970-01-01 00:00:25.207,-23.58,79.57,165.20,150.88,1.57,0.53,9.70,0.01,0.53,-0.03,-2.01,-1.12,-0.67,-0.03,-0.64,-0.08,0.76,2.69,1.96
1970-01-01 00:00:25.316,-23.76,79.48,165.01,191.94,1.57,0.41,9.74,0.06,0.41,0.01,0.78,1.23,-0.56,-0.03,-0.64,-0.08,0.76,2.69,1.96
1970-01-01 00:00:25.426,-23.41,79.45,165.39,211.87,1.57,0.37,9.81,-0.18,0.37,0.17,-0.45,3.13,0.11,-0.03,-0.64,-0.08,0.76,2.69,1.96
1970-01-01 00:00:25.536,-23.70,79.42,165.14,191.81,1.65,0.41,9.74,-0.07,0.41,-0.00,-1.34,-0.56,-1.57,-0.03,-0.64,-0.08,0.76,2.69,2.20
1970-01-01 00:00:25.637,-24.25,79.39,164.58,175.20,1.61,0.45,9.74,0.01,0.45,-0.03,-1.12,0.00,-0.34,-0.03,-0.64,-0.08,0.76,2.69,1.96
1970-01-01 00:00:25.745,-24.25,79.39,164.58,150.54,1.61,0.53,9.70,0.13,0.53,0.01,-0.90,-1.34,0.45,-0.03,-0.64,-0.08,0.76,2.69,2.20
1970-01-01 00:00:25.856,-24.99,79.29,163.72,161.11,1.57,0.49,9.70,0.04,0.49,-0.10,-0.22,1.12,0.34,-0.03,-0.64,-0.08,0.76,2.69,2.20
1970-01-01 00:00:25.966,-25.37,79.39,163.32,140.16,1.34,0.57,9.89,0.02,0.57,-0.09,1.23,-2.24,-0.22,-0.03,-0.64,-0.08,0.76,2.69,1.96
1970-01-01 00:00:26.097,-25.24,79.37,163.40,131.08,1.42,0.61,9.81,-0.08,0.61,0.05,-1.12,-1.90,0.67,-0.03,-0.64,-0.08,0.76,2.69,1.96
1970-01-01 00:00:26.207,-25.22,79.35,163.36,140.10,1.65,0.57,9.70,0.13,0.57,-0.14,0.11,0.45,-1.12,-0.03,-0.64,-0.08,0.76,2.69,2.44
1970-01-01 00:00:26.317,-25.22,79.35,163.36,236.21,1.50,0.34,9.77,0.02,0.34,0.01,0.22,0.78,0.56,-0.03,-0.64,-0.08,0.76,2.69,1.96
1970-01-01 00:00:26.428,-24.77,79.28,163.85,139.97,1.65,0.57,9.73,0.09,0.57,0.00,-0.56,0.90,-0.78,-0.03,-0.64,-0.08,0.76,2.69,1.96
1970-01-01 00:00:26.536,-24.85,79.23,163.68,174.85,1.42,0.45,9.77,0.01,0.45,-0.07,-0.22,-0.11,-0.34,-0.03,-0.64,-0.08,0.76,2.69,1.96
1970-01-01 00:00:26.637,-24.91,79.18,163.69,130.77,1.84,0.61,9.59,0.16,0.61,-0.03,0.22,1.57,-1.01,-0.03,-0.64,-0.08,0.76,2.69,1.96
1970-01-01 00:00:26.746,-24.07,79.10,164.60,302.22,1.61,0.26,9.73,0.00,0.26,0.02,1.01,-1.23,-1.23,-0.03,-0.64,-0.08,0.77,2.69,1.96
1970-01-01 00:00:26.857,-24.06,79.09,164.43,160.70,1.46,0.49,9.77,-0.02,0.49,0.00,-1.01,-1.90,0.78,-0.03,-0.64,-0.07,0.77,2.69,1.96
1970-01-01 00:00:26.967,-24.10,79.08,164.34,174.53,1.61,0.45,9.74,0.07,0.45,0.00,-0.56,0.22,-0.56,-0.03,-0.64,-0.07,0.77,2.69,2.20
1970-01-01 00:00:27.067,-24.13,79.09,164.33,210.91,1.61,0.37,9.78,0.07,0.37,0.00,0.67,0.00,-0.90,-0.03,-0.64,-0.07,0.77,2.69,2.44
1970-01-01 00:00:27.176,-23.68,79.08,164.80,190.99,1.38,0.41,9.86,-0.00,0.41,0.05,0.90,0.00,-0.67,-0.03,-0.64,-0.07,0.77,2.69,1.96
1970-01-01 00:00:27.280,-23.50,79.04,164.99,174.43,1.38,0.45,9.82,0.03,0.45,-0.04,0.56,-0.56,-1.01,-0.03,-0.64,-0.07,0.77,2.69,1.96
1970-01-01 00:00:27.397,-23.42,79.08,165.11,160.66,1.57,0.49,9.78,-0.05,0.49,0.01,0.56,0.45,0.11,-0.03,-0.64,-0.07,0.77,2.69,1.96
1970-01-01 00:00:27.507,-23.07,79.03,165.45,160.56,1.57,0.49,9.70,-0.05,0.49,0.01,0.22,-0.78,-0.90,-0.03,-0.64,-0.07,0.77,2.69,1.96
1970-01-01 00:00:27.607,-23.07,79.03,165.45,130.52,1.38,0.61,9.81,-0.12,0.61,0.00,-0.22,-1.23,1.12,-0.03,-0.64,-0.07,0.77,2.69,2.20
1970-01-01 00:00:27.717,-22.85,79.04,165.72,174.44,1.54,0.45,9.77,0.01,0.45,0.05,-0.34,0.22,-0.11,-0.03,-0.64,-0.07,0.77,2.69,1.96
1970-01-01 00:00:27.827,-22.41,79.02,166.20,160.54,1.54,0.49,9.77,0.04,0.49,0.04,-0.56,-0.22,0.22,-0.03,-0.64,-0.07,0.77,2.69,1.96
1970-01-01 00:00:27.928,-22.41,79.06,166.22,190.93,1.50,0.41,9.82,0.04,0.41,-0.03,0.22,0.11,0.45,-0.03,-0.64,-0.07,0.77,2.69,1.96
1970-01-01 00:00:28.037,-22.24,79.08,166.39,190.98,1.42,0.41,9.77,0.04,0.41,-0.03,0.67,0.00,0.22,-0.03,-0.64,-0.07,0.77,2.69,2.20
1970-01-01 00:00:28.147,-20.67,78.99,167.74,210.63,1.46,0.37,9.77,-0.09,0.37,0.07,4.81,-7.50,-3.92,-0.03,-0.64,-0.07,0.77,2.69,1.96
1970-01-01 00:00:28.267,-19.55,78.98,168.57,210.61,1.30,0.37,9.81,-0.06,0.37,0.02,-1.90,-0.11,0.56,-0.03,-0.64,-0.07,0.77,2.69,2.20
1970-01-01 00:00:28.377,-19.92,78.96,168.33,210.57,1.65,0.37,9.78,0.13,0.37,0.07,0.67,1.12,0.34,-0.03,-0.64,-0.07,0.77,2.69,2.20
1970-01-01 00:00:28.477,-19.92,78.96,168.33,354.64,1.30,0.22,9.82,-0.20,0.22,-0.00,3.58,3.25,0.45,-0.03,-0.64,-0.07,0.77,2.69,2.20
1970-01-01 00:00:28.587,-18.71,79.12,169.76,263.03,1.50,0.30,9.86,-0.20,0.30,-0.00,0.22,-1.12,-0.45,-0.04,-0.64,-0.07,0.77,2.69,1.96
1970-01-01 00:00:28.688,-18.71,79.12,169.76,235.51,1.46,0.34,9.70,-0.02,0.34,-0.09,-0.90,0.00,0.11,-0.04,-0.64,-0.07,0.77,2.69,1.96
1970-01-01 00:00:28.798,-19.02,79.07,169.36,430.67,1.46,0.18,9.89,0.00,0.18,0.09,0.45,3.47,3.13,-0.03,-0.64,-0.07,0.77,2.69,1.96
1970-01-01 00:00:28.908,-19.02,79.07,169.36,262.88,1.65,0.30,9.66,-0.11,0.30,0.08,1.57,1.12,3.92,-0.03,-0.64,-0.07,0.77,2.69,2.20
1970-01-01 00:00:29.009,-19.02,79.07,169.36,262.88,1.50,0.30,9.89,-0.04,0.30,0.01,0.90,0.78,1.23,-0.03,-0.64,-0.07,0.77,2.69,1.96
1970-01-01 00:00:29.118,-18.21,79.61,170.52,304.20,1.50,0.26,9.81,-0.04,0.26,0.01,0.56,0.56,0.45,-0.04,-0.64,-0.07,0.76,2.44,1.96
1970-01-01 00:00:29.226,-22.21,79.55,166.40,-496.68,1.54,-0.16,9.97,-0.84,-0.16,0.41,-2.46,-0.78,1.01,-0.03,-0.64,-0.07,0.76,2.69,2.20
1970-01-01 00:00:29.327,-22.21,79.55,166.40,192.11,1.80,0.41,9.89,0.45,0.41,-0.07,-68.37,9.51,29.66,-0.03,-0.64,-0.07,0.76,2.69,1.96
1970-01-01 00:00:29.438,-85.74,71.66,102.22,18.02,0.42,3.98,9.62,0.45,3.98,-0.07,-73.52,-15.67,62.56,0.06,-0.68,-0.16,0.71,2.69,2.20
1970-01-01 00:00:29.548,-87.94,67.37,99.30,17.11,1.04,3.94,8.89,-0.10,3.94,-0.46,-19.36,-6.94,-17.12,0.09,-0.68,-0.18,0.71,2.69,1.96
1970-01-01 00:00:29.667,-78.52,67.11,108.55,13.39,0.84,5.01,8.93,-0.10,5.01,-0.46,28.76,-41.63,-32.01,0.09,-0.66,-0.18,0.73,2.69,2.20
1970-01-01 00:00:29.767,-73.95,67.33,114.15,29.87,2.15,2.25,8.78,-0.10,2.25,-0.46,10.07,16.00,-28.09,0.08,-0.64,-0.18,0.74,2.69,2.20
1970-01-01 00:00:29.886,-76.33,65.60,110.90,16.34,1.34,4.02,9.23,-0.27,4.02,0.32,1.57,-8.06,-8.17,0.10,-0.65,-0.19,0.73,2.69,2.20
1970-01-01 00:00:29.988,-75.32,65.90,111.50,18.75,1.27,3.52,9.01,-0.32,3.52,0.00,7.61,-1.12,-1.23,0.10,-0.64,-0.18,0.74,2.69,1.96
1970-01-01 00:00:30.088,-75.32,65.90,111.50,16.74,1.30,3.94,9.01,-0.05,3.94,-0.01,1.79,0.78,7.61,0.10,-0.64,-0.18,0.74,2.69,2.20
1970-01-01 00:00:30.197,-76.07,66.98,110.76,21.12,1.57,3.17,9.24,-0.05,3.17,-0.01,6.27,-2.13,-6.71,0.09,-0.65,-0.18,0.73,2.69,1.96
1970-01-01 00:00:30.308,-78.88,67.74,108.83,23.34,1.23,2.90,9.01,-0.59,2.90,0.37,16.90,41.85,27.31,0.09,-0.66,-0.18,0.73,2.69,1.96
1970-01-01 00:00:30.428,-85.07,67.41,105.09,16.02,2.99,4.21,9.97,0.00,4.21,-0.19,-26.75,8.84,-14.66,0.07,-0.67,-0.20,0.71,2.69,1.96
1970-01-01 00:00:30.529,-85.07,67.41,105.09,15.60,1.50,4.32,8.89,-0.16,4.32,0.21,-37.49,1.57,0.45,0.07,-0.67,-0.20,0.71,2.69,1.96
1970-01-01 00:00:30.637,-85.07,67.41,105.09,13.66,1.73,4.93,8.36,0.27,4.93,0.02,-47.90,-3.47,1.79,0.07,-0.67,-0.20,0.71,2.69,2.20
1970-01-01 00:00:30.748,-87.73,52.45,100.70,8.84,0.61,5.93,8.05,0.04,5.93,0.09,-46.11,2.91,6.94,0.18,-0.64,-0.28,0.69,2.69,1.96
1970-01-01 00:00:30.848,-87.73,52.45,100.70,7.83,1.34,6.70,6.98,-0.06,6.70,-0.12,-42.41,-4.48,1.57,0.18,-0.64,-0.28,0.69,2.69,1.96
1970-01-01 00:00:30.958,-87.73,52.45,100.70,7.65,1.46,6.86,6.29,0.34,6.86,-0.55,-30.66,-3.92,0.45,0.18,-0.64,-0.28,0.69,2.69,1.96
1970-01-01 00:00:31.058,-87.66,41.36,100.51,5.81,1.30,7.12,6.67,0.07,7.12,0.13,-25.18,-0.78,-3.47,0.24,-0.61,-0.34,0.68,2.69,2.20
1970-01-01 00:00:31.168,-87.66,41.36,100.51,5.43,1.61,7.62,5.71,-0.02,7.62,-0.27,-31.11,-1.90,-0.78,0.24,-0.61,-0.34,0.68,2.69,2.20
1970-01-01 00:00:31.288,-88.10,33.74,100.09,4.26,0.88,7.93,6.33,0.05,7.93,0.24,-32.90,10.85,4.25,0.29,-0.59,-0.38,0.66,2.69,1.96
1970-01-01 00:00:31.388,-87.67,28.95,99.36,3.47,1.27,8.34,4.61,0.05,8.34,0.24,-51.59,-3.80,3.58,0.32,-0.57,-0.39,0.64,2.69,1.96
1970-01-01 00:00:31.498,-87.67,28.95,99.36,3.30,1.80,8.77,3.95,0.21,8.77,0.18,-46.66,14.32,-5.82,0.32,-0.57,-0.39,0.64,2.69,1.96
1970-01-01 00:00:31.608,-87.58,19.71,98.73,2.15,0.96,9.15,3.61,-0.25,9.15,-0.27,-40.40,-21.37,-4.25,0.37,-0.54,-0.44,0.62,2.69,1.96
1970-01-01 00:00:31.708,-84.66,15.76,99.17,1.69,2.34,9.34,2.54,-0.25,9.34,-0.27,-33.91,-26.63,-8.50,0.40,-0.51,-0.44,0.62,2.69,2.44
1970-01-01 00:00:31.828,-83.44,9.38,96.94,1.00,1.38,9.34,1.88,0.54,9.34,0.20,-54.95,-20.93,23.39,0.45,-0.49,-0.46,0.59,2.69,2.20
1970-01-01 00:00:31.938,-81.18,5.07,96.27,0.72,0.50,7.00,1.69,-0.68,7.00,0.37,-61.32,-8.84,9.85,0.48,-0.46,-0.46,0.58,2.69,1.96
1970-01-01 00:00:32.039,-81.18,5.07,96.27,0.48,1.07,10.60,-0.84,-0.08,10.60,0.14,-63.00,39.39,14.88,0.48,-0.46,-0.46,0.58,2.69,1.96
1970-01-01 00:00:32.147,-85.21,-7.75,92.16,-0.78,0.61,10.00,-1.26,-0.08,10.00,0.14,-44.31,-1.45,8.73,0.54,-0.43,-0.52,0.50,2.69,1.96
1970-01-01 00:00:32.249,-85.96,-10.69,91.17,-1.11,0.96,9.61,-2.29,0.42,9.61,-0.30,-7.05,24.17,-2.35,0.56,-0.43,-0.53,0.48,2.69,2.20
1970-01-01 00:00:32.349,-87.64,-9.94,91.46,-1.06,0.54,9.42,-1.83,0.04,9.42,-0.02,7.27,12.65,1.57,0.54,-0.44,-0.54,0.47,2.69,1.96
1970-01-01 00:00:32.458,-89.02,-8.24,92.35,-0.83,0.20,9.96,-1.07,0.04,9.96,-0.02,3.47,10.41,4.36,0.53,-0.45,-0.54,0.48,2.69,1.96
1970-01-01 00:00:32.568,-89.02,-8.24,92.35,-1.09,-0.42,7.54,0.05,-1.66,7.54,0.35,21.93,-6.38,-1.34,0.53,-0.45,-0.54,0.48,2.69,2.20
1970-01-01 00:00:32.688,-90.25,-5.52,93.37,-0.51,1.46,10.80,-1.49,-1.66,10.80,0.35,14.10,-9.18,-8.50,0.51,-0.46,-0.54,0.49,2.69,2.20
1970-01-01 00:00:32.789,-90.42,-3.36,92.49,-0.38,0.04,8.80,-0.80,-1.66,8.80,0.35,21.15,23.39,18.13,0.50,-0.48,-0.53,0.49,2.69,1.96
1970-01-01 00:00:32.898,-90.81,-6.42,90.01,-0.62,0.61,10.30,-1.10,0.08,10.30,-0.03,-40.96,-26.63,37.60,0.52,-0.47,-0.53,0.47,2.69,2.20
1970-01-01 00:00:33.008,-90.93,-7.92,88.45,-0.86,0.08,9.26,-1.29,0.73,9.26,-0.08,-28.20,-23.16,4.36,0.54,-0.48,-0.53,0.45,2.44,1.96
1970-01-01 00:00:33.118,-90.93,-7.92,88.45,-0.87,-0.19,9.07,-1.64,0.21,9.07,-0.05,-0.45,-7.39,9.40,0.54,-0.48,-0.53,0.45,2.69,2.20
1970-01-01 00:00:33.229,-88.46,-9.64,87.99,-1.16,2.87,8.31,-1.91,-0.13,8.31,0.18,3.69,-4.25,-3.02,0.55,-0.46,-0.53,0.45,2.69,1.96
1970-01-01 00:00:33.330,-88.46,-9.64,87.99,-1.04,-0.54,9.30,-1.41,3.67,9.30,-1.16,-23.50,-21.82,57.86,0.55,-0.46,-0.53,0.45,2.93,2.20
1970-01-01 00:00:33.438,-88.46,-9.64,87.99,-1.00,-14.18,9.68,5.03,-4.09,9.68,-2.20,-17.90,-305.61,37.15,0.55,-0.46,-0.53,0.45,2.69,1.96
1970-01-01 00:00:33.548,-88.46,-9.64,87.99,-1.10,-2.14,8.73,-1.87,-1.35,8.73,0.32,-26.63,-37.15,-21.60,0.55,-0.46,-0.53,0.45,2.69,2.20
1970-01-01 00:00:33.688,-86.85,-17.95,90.65,-2.13,-0.57,8.43,-2.37,-0.95,8.43,0.43,-44.20,-191.25,8.73,0.58,-0.40,-0.56,0.43,2.69,1.96
1970-01-01 00:00:33.789,-96.38,-21.07,92.31,-2.40,0.20,8.77,-3.59,-0.08,8.77,0.10,-39.84,-3.36,21.71,0.55,-0.42,-0.61,0.38,2.69,2.20
1970-01-01 00:00:33.896,-96.38,-21.07,92.31,414.92,-0.15,8.46,-4.28,0.05,-0.05,0.10,-71.62,-16.56,12.87,0.55,-0.42,-0.61,0.38,2.69,2.20
1970-01-01 00:00:34.019,-102.34,-35.79,95.81,-5.31,-0.04,6.74,-5.59,0.08,6.74,-0.18,-69.27,-16.45,13.88,0.58,-0.35,-0.68,0.28,2.44,2.20
1970-01-01 00:00:34.129,-102.34,-35.79,95.81,-5.67,0.23,6.31,-7.08,0.16,6.31,-0.11,-95.46,1.12,4.36,0.58,-0.35,-0.68,0.28,2.69,1.96
1970-01-01 00:00:34.229,-104.62,-54.32,100.82,-10.07,-0.07,5.39,-7.84,0.06,5.39,-0.23,-102.28,-12.87,-0.90,0.63,-0.23,-0.72,0.19,2.69,1.96
1970-01-01 00:00:34.340,-108.51,-63.10,106.04,-22.31,0.42,2.83,-9.07,0.46,2.83,-0.42,-94.78,-16.45,-5.26,0.64,-0.17,-0.74,0.14,2.69,1.96
1970-01-01 00:00:34.449,-118.32,-72.46,118.40,-26.35,0.61,2.75,-9.38,0.15,2.75,-0.14,-76.88,-11.97,7.16,0.65,-0.09,-0.75,0.10,2.69,1.96
1970-01-01 00:00:34.549,-131.79,-77.60,133.36,-72.77,0.96,1.07,-9.64,0.70,1.07,-0.58,-50.81,-16.79,-2.13,0.65,-0.05,-0.75,0.07,2.69,1.96
1970-01-01 00:00:34.659,-131.79,-77.60,133.36,946.04,1.54,-0.08,-9.88,0.54,-0.08,-0.73,-43.98,2.69,-15.78,0.65,-0.05,-0.75,0.07,2.69,1.96
1970-01-01 00:00:34.769,-169.71,-80.64,173.26,104.26,1.50,-0.77,-9.22,0.82,-0.77,0.11,-33.68,-5.82,4.59,0.65,0.01,-0.76,0.03,2.69,1.96
1970-01-01 00:00:34.879,-169.71,-80.64,173.26,41.96,1.61,-1.92,-9.49,0.67,-1.92,0.07,-52.93,-0.78,2.57,0.65,0.01,-0.76,0.03,2.69,1.96
1970-01-01 00:00:34.980,-169.71,-80.64,173.26,25.30,1.57,-3.19,-9.00,0.73,-3.19,0.03,-88.97,-7.05,11.97,0.65,0.01,-0.76,0.03,2.69,1.96
1970-01-01 00:00:35.088,114.05,-65.86,-104.65,16.04,1.54,-4.11,-8.91,0.73,-4.11,0.03,-102.95,-8.95,26.97,0.64,0.20,-0.74,-0.08,2.69,1.96
1970-01-01 00:00:35.189,114.05,-65.86,-104.65,11.23,2.72,-5.87,-7.77,1.25,-5.87,-0.32,-95.90,-21.71,16.67,0.64,0.20,-0.74,-0.08,2.69,1.96
1970-01-01 00:00:35.291,105.64,-48.14,-88.26,8.10,2.61,-5.95,-6.81,1.25,-5.95,-0.32,-104.97,-33.46,-5.04,0.62,0.35,-0.68,-0.15,2.69,2.20
1970-01-01 00:00:35.409,106.51,-37.98,-84.91,5.00,2.91,-7.59,-4.70,0.34,-7.59,0.11,-91.87,-34.24,1.01,0.59,0.43,-0.66,-0.19,2.69,1.96
1970-01-01 00:00:35.520,109.85,-28.86,-81.49,3.25,2.03,-8.89,-3.06,-0.77,-8.89,0.18,-94.11,-46.78,-5.26,0.55,0.51,-0.63,-0.21,2.69,1.96
1970-01-01 00:00:35.629,109.90,-15.89,-76.70,1.64,3.49,-9.70,-1.75,0.37,-9.70,-0.27,-103.18,-4.48,-3.58,0.52,0.59,-0.57,-0.26,2.69,1.96
1970-01-01 00:00:35.730,108.87,-5.67,-71.34,0.59,4.33,-9.58,-0.07,0.61,-9.58,0.02,-108.66,-3.36,15.78,0.50,0.64,-0.50,-0.31,2.69,1.96
1970-01-01 00:00:35.839,111.54,6.69,-65.70,-0.71,3.72,-9.39,2.73,0.61,-9.39,0.02,-131.60,-32.34,-5.71,0.45,0.71,-0.42,-0.35,2.69,2.20
1970-01-01 00:00:35.941,113.82,12.79,-62.86,-1.45,2.68,-8.82,4.80,-1.05,-8.82,1.21,-131.49,-13.32,-22.38,0.41,0.74,-0.38,-0.36,2.69,1.96
1970-01-01 00:00:36.043,113.82,12.79,-62.86,-1.86,2.07,-6.86,6.79,-0.92,-6.86,0.71,-117.95,-9.40,-0.56,0.41,0.74,-0.38,-0.36,2.69,2.20
1970-01-01 00:00:36.171,113.82,12.79,-62.86,-2.80,3.07,-4.57,7.52,0.05,-4.57,-0.88,-125.11,26.07,-4.92,0.41,0.74,-0.38,-0.36,2.69,2.20
1970-01-01 00:00:36.280,136.01,57.06,-30.99,-29.10,2.15,-1.96,8.67,-0.49,-1.96,-0.10,-155.88,10.07,-21.82,0.20,0.83,-0.05,-0.51,2.69,2.20
1970-01-01 00:00:36.382,151.20,68.06,-14.21,-42.09,3.68,-1.62,9.81,0.84,-1.62,-0.20,-132.83,11.19,-45.77,0.14,0.81,0.04,-0.56,2.69,1.96
1970-01-01 00:00:36.489,151.20,68.06,-14.21,-76.76,2.72,-0.89,10.20,1.18,-0.89,0.40,-12.87,-43.64,-44.99,0.14,0.81,0.04,-0.56,2.69,1.96
1970-01-01 00:00:36.590,-173.96,75.90,12.01,105.60,1.23,0.72,9.73,0.18,0.72,0.50,-26.63,-52.93,-11.19,0.02,0.79,0.05,-0.62,2.69,1.96
1970-01-01 00:00:36.700,-168.03,74.82,18.15,141.88,1.88,0.53,9.89,0.18,0.53,0.50,19.70,-8.95,-4.92,0.01,0.79,0.06,-0.61,2.69,2.20
1970-01-01 00:00:36.820,-173.26,73.61,10.60,1046.90,-0.11,0.07,9.89,-0.44,0.07,0.41,7.83,-8.73,17.23,0.01,0.80,0.04,-0.60,2.69,1.96
1970-01-01 00:00:36.930,-173.07,74.17,10.30,130.96,0.39,0.57,9.70,0.08,0.57,0.13,-2.91,-2.01,-9.29,0.01,0.80,0.04,-0.60,2.69,2.20
1970-01-01 00:00:37.030,-177.84,73.64,5.17,-608.09,0.00,-0.12,10.04,-0.37,-0.12,0.50,13.43,-0.34,12.98,0.01,0.80,0.02,-0.60,2.69,1.96
1970-01-01 00:00:37.140,-177.84,73.64,5.17,77.58,0.54,0.95,9.62,-0.22,0.95,-0.05,0.78,13.20,-15.78,0.01,0.80,0.02,-0.60,2.69,2.20
1970-01-01 00:00:37.250,175.83,74.42,0.04,-614.57,0.69,-0.12,9.97,-0.13,-0.12,0.36,20.14,1.12,-2.80,0.03,0.80,0.02,-0.60,2.69,1.96
1970-01-01 00:00:37.350,173.48,73.98,-2.32,-146.80,0.65,-0.50,9.89,0.00,-0.50,0.01,7.72,2.13,5.37,0.03,0.80,0.02,-0.60,2.69,1.96
1970-01-01 00:00:37.460,174.22,74.02,-1.16,0.00,0.69,-0.01,9.74,-0.15,-0.01,0.01,6.04,19.58,2.46,0.03,0.80,0.02,-0.60,2.69,1.96
1970-01-01 00:00:37.571,174.22,74.02,-1.16,-310.65,0.80,-0.24,10.04,-0.08,-0.24,0.06,-7.50,2.57,-6.15,0.03,0.80,0.02,-0.60,2.69,2.20
1970-01-01 00:00:37.680,176.18,74.94,2.01,286.35,0.69,0.26,9.86,-0.23,0.26,0.12,-13.76,-1.68,-5.82,0.04,0.79,0.03,-0.61,2.69,1.96
1970-01-01 00:00:37.790,176.81,75.09,2.51,-915.34,0.80,-0.08,10.04,-0.01,-0.08,0.25,3.80,-6.27,2.57,0.04,0.79,0.03,-0.61,2.69,1.96
1970-01-01 00:00:37.909,177.02,74.66,2.09,406.65,0.65,0.18,9.86,-0.57,0.18,0.13,-0.11,0.90,-3.25,0.03,0.79,0.03,-0.61,2.69,2.20
1970-01-01 00:00:38.010,177.64,74.75,2.80,2391.85,0.73,0.03,9.70,-0.36,0.03,0.12,-4.36,8.28,0.11,0.03,0.79,0.03,-0.61,2.69,1.96
1970-01-01 00:00:38.111,177.76,74.84,3.44,-467.31,0.80,-0.16,9.97,0.00,-0.16,0.27,1.68,1.34,1.79,0.03,0.79,0.04,-0.61,2.69,2.20
1970-01-01 00:00:38.231,178.19,75.11,3.87,0.00,0.80,-0.01,9.97,0.03,-0.01,0.15,1.68,-2.69,-0.45,0.03,0.79,0.04,-0.61,2.69,1.96
1970-01-01 00:00:38.331,178.05,74.93,3.76,0.00,0.84,-0.01,9.89,-0.05,-0.01,0.10,-0.56,1.68,-0.22,0.03,0.79,0.04,-0.61,2.69,1.96
1970-01-01 00:00:38.440,178.05,74.93,3.76,2397.83,0.84,0.03,9.86,-0.13,0.03,-0.02,-0.22,0.22,-0.22,0.03,0.79,0.04,-0.61,2.44,1.96
1970-01-01 00:00:38.540,178.05,74.93,3.76,-1598.55,0.65,-0.05,9.81,-0.16,-0.05,-0.07,-0.90,-0.45,-2.57,0.03,0.79,0.04,-0.61,2.69,2.20
1970-01-01 00:00:38.650,178.85,75.00,4.56,518.95,-0.50,0.14,10.12,-1.02,0.14,-0.11,-9.96,6.49,2.01,0.03,0.79,0.04,-0.61,2.69,2.20
1970-01-01 00:00:38.761,179.51,74.61,7.51,65.41,1.57,1.14,9.86,0.37,1.14,-0.09,-7.27,27.19,3.13,0.04,0.79,0.05,-0.60,2.69,1.96
1970-01-01 00:00:38.871,177.05,73.04,4.79,217.41,5.17,0.34,8.16,2.96,0.34,-1.24,27.98,35.36,-13.99,0.05,0.80,0.05,-0.59,2.69,1.96
1970-01-01 00:00:39.001,173.55,74.10,-3.78,-91.20,-0.77,-0.81,9.81,-1.54,-0.81,0.05,9.85,-13.43,3.58,0.03,0.80,0.01,-0.60,2.69,1.96
1970-01-01 00:00:39.111,173.55,74.10,-3.78,-1580.85,1.23,-0.05,10.08,0.45,-0.05,0.14,-0.90,11.19,0.78,0.03,0.80,0.01,-0.60,2.69,2.20
1970-01-01 00:00:39.230,173.15,73.57,-2.92,1046.30,0.61,0.07,9.93,0.07,0.07,0.10,-0.78,-1.45,-2.01,0.03,0.80,0.02,-0.60,2.69,2.20
1970-01-01 00:00:39.340,172.38,73.42,-4.00,-234.96,0.46,-0.31,9.77,-0.16,-0.31,-0.25,3.02,-3.36,-0.78,0.03,0.80,0.01,-0.60,2.69,1.96
1970-01-01 00:00:39.451,171.36,73.73,-5.28,-898.75,0.42,-0.08,9.85,-0.10,-0.08,-0.02,0.45,-2.91,-4.70,0.03,0.80,0.01,-0.60,2.69,2.20
1970-01-01 00:00:39.551,171.36,73.73,-5.28,-898.75,1.00,-0.08,10.04,0.21,-0.08,0.14,-0.67,3.80,1.23,0.03,0.80,0.01,-0.60,2.69,2.20
1970-01-01 00:00:40.756,171.36,73.73,-5.28,-898.75,1.00,-0.08,10.04,0.21,-0.08,0.14,2.57,-1.90,0.22,0.03,0.80,0.01,-0.60,2.69,1.96
1970-01-01 00:00:40.871,171.36,73.73,-5.28,-309.40,1.00,-0.24,9.97,0.20,-0.24,0.22,-0.56,4.14,0.78,0.03,0.80,0.01,-0.60,2.69,1.96
1970-01-01 00:00:40.991,169.98,72.96,-6.40,-306.18,0.88,-0.24,9.77,0.20,-0.24,0.22,1.57,-2.91,0.34,0.04,0.80,0.01,-0.60,2.69,1.96
1970-01-01 00:00:41.101,169.84,72.90,-6.60,-207.36,0.58,-0.35,9.93,-0.05,-0.35,0.00,1.12,-2.13,-1.12,0.04,0.80,0.01,-0.59,2.69,1.96
1970-01-01 00:00:41.201,170.08,72.92,-6.29,-1555.57,0.58,-0.05,9.81,-0.06,-0.05,-0.17,-1.57,-1.57,-0.22,0.04,0.80,0.01,-0.59,2.69,2.20
1970-01-01 00:00:41.312,170.08,72.92,-6.29,-366.02,0.80,-0.20,9.93,0.13,-0.20,-0.02,-0.22,0.00,1.57,0.04,0.80,0.01,-0.59,2.69,2.20
1970-01-01 00:00:41.431,170.31,72.91,-6.11,-455.25,0.73,-0.16,9.93,-0.15,-0.16,0.03,0.45,1.23,0.00,0.04,0.80,0.01,-0.59,2.69,2.20
1970-01-01 00:00:41.541,169.97,72.80,-6.46,-169.43,0.69,-0.43,10.04,0.08,-0.43,0.14,0.90,-2.69,-0.56,0.04,0.80,0.01,-0.59,2.69,1.96
1970-01-01 00:00:41.642,169.97,72.80,-6.46,-232.97,0.50,-0.31,9.93,-0.16,-0.31,-0.05,0.11,0.45,0.45,0.04,0.80,0.01,-0.59,2.69,1.96
1970-01-01 00:00:41.751,170.36,72.72,-6.01,-365.00,0.69,-0.20,9.86,-0.16,-0.20,-0.05,0.34,-4.25,0.00,0.04,0.80,0.01,-0.59,2.69,1.96
1970-01-01 00:00:41.851,170.47,72.67,-6.16,-232.56,0.77,-0.31,9.73,-0.16,-0.31,-0.05,1.01,-0.56,0.11,0.04,0.80,0.01,-0.59,2.69,1.96
1970-01-01 00:00:41.952,170.46,72.61,-5.98,-599.60,0.54,-0.12,9.86,0.09,-0.12,-0.12,0.78,3.25,1.79,0.04,0.80,0.01,-0.59,2.69,2.20
1970-01-01 00:00:42.062,170.33,72.59,-6.07,-599.46,0.80,-0.12,9.74,0.09,-0.12,-0.12,0.45,3.80,2.13,0.04,0.80,0.01,-0.59,2.69,2.20
1970-01-01 00:00:42.272,170.33,72.59,-6.07,-884.91,0.61,-0.08,9.86,-0.09,-0.08,0.00,0.11,1.34,4.03,0.04,0.80,0.01,-0.59,2.69,2.20
1970-01-01 00:00:42.381,166.41,70.93,-9.04,-1513.10,0.27,-0.05,9.70,-0.09,-0.05,0.00,12.09,13.54,13.76,0.05,0.81,0.00,-0.58,2.69,1.96
1970-01-01 00:00:42.484,166.41,70.93,-9.04,-70.65,1.96,-1.00,9.09,-0.63,-1.00,-0.16,24.06,64.23,37.60,0.05,0.81,0.00,-0.58,2.69,1.96
1970-01-01 00:00:42.601,166.41,70.93,-9.04,-140.75,3.22,-0.50,8.40,0.07,-0.50,-0.08,42.30,78.78,55.73,0.05,0.81,0.00,-0.58,2.44,2.20
1970-01-01 00:00:42.703,135.06,49.07,-22.61,-43.92,7.32,-1.12,5.95,1.70,-1.12,-1.58,134.40,133.06,92.66,0.27,0.86,-0.01,-0.44,2.69,2.20
1970-01-01 00:00:42.814,120.45,18.64,-24.50,28.92,7.89,0.64,-0.80,-2.23,0.64,-3.11,350.27,204.56,120.07,0.45,0.85,-0.10,-0.24,2.69,1.96
1970-01-01 00:00:42.932,94.03,-29.20,-35.82,2.36,13.91,-12.38,-2.18,13.04,-12.38,-3.25,280.88,209.71,-86.50,0.68,0.62,-0.38,-0.03,2.69,1.96
1970-01-01 00:00:43.033,95.97,-32.59,-33.95,5.63,9.50,-5.79,-3.44,1.48,-5.79,-1.32,12.09,2.35,-18.35,0.68,0.63,-0.39,0.01,2.69,1.96
1970-01-01 00:00:43.133,102.44,-42.72,-36.61,13.24,9.16,-3.23,-3.59,1.48,-3.23,-1.32,209.60,2.24,4.59,0.64,0.62,-0.44,0.09,2.69,1.96
1970-01-01 00:00:43.239,113.81,-63.91,-51.48,-21.19,6.74,-0.27,-3.55,-1.55,3.02,0.66,215.19,49.91,-80.35,0.61,0.51,-0.57,0.20,2.69,1.96
1970-01-01 00:00:43.341,113.81,-63.91,-51.48,96.82,7.43,-0.66,-6.73,-0.07,-0.66,0.34,139.77,-24.51,-23.84,0.61,0.51,-0.57,0.20,2.69,1.96
1970-01-01 00:00:43.441,113.81,-63.91,-51.48,96.82,7.43,-0.66,-6.73,-0.07,-0.66,0.34,145.03,-48.23,-15.89,0.61,0.51,-0.57,0.20,2.69,1.96
1970-01-01 00:00:43.542,113.81,-63.91,-51.48,96.82,7.43,-0.66,-6.73,-0.07,-0.66,0.34,145.03,-48.23,-15.89,0.61,0.51,-0.57,0.20,2.69,1.96
1970-01-01 00:00:43.644,113.81,-63.91,-51.48,96.82,7.43,-0.66,-6.73,-0.07,-0.66,0.34,145.03,-48.23,-15.89,0.61,0.51,-0.57,0.20,2.69,2.20
1970-01-01 00:00:43.745,113.81,-63.91,-51.48,96.82,7.43,-0.66,-6.73,-0.07,-0.66,0.34,145.03,-48.23,-15.89,0.61,0.51,-0.57,0.20,2.69,2.93
1970-01-01 00:00:43.845,113.81,-63.91,-51.48,96.82,7.43,-0.66,-6.73,-0.07,-0.66,0.34,145.03,-48.23,-15.89,0.61,0.51,-0.57,0.20,2.69,1.96
1970-01-01 00:00:43.946,113.81,-63.91,-51.48,96.82,7.43,-0.66,-6.73,-0.07,-0.66,0.34,145.03,-48.23,-15.89,0.61,0.51,-0.57,0.20,2.69,2.20
1970-01-01 00:00:44.048,113.81,-63.91,-51.48,96.82,7.43,-0.66,-6.73,-0.07,-0.66,0.34,145.03,-48.23,-15.89,0.61,0.51,-0.57,0.20,2.69,1.96
1970-01-01 00:00:44.148,113.81,-63.91,-51.48,96.82,7.43,-0.66,-6.73,-0.07,-0.66,0.34,145.03,-48.23,-15.89,0.61,0.51,-0.57,0.20,2.69,1.71
1970-01-01 00:00:44.249,113.81,-63.91,-51.48,96.82,7.43,-0.66,-6.73,-0.07,-0.66,0.34,145.03,-48.23,-15.89,0.61,0.51,-0.57,0.20,2.69,1.47
1970-01-01 00:00:44.350,113.81,-63.91,-51.48,96.82,7.43,-0.66,-6.73,-0.07,-0.66,0.34,145.03,-48.23,-15.89,0.61,0.51,-0.57,0.20,2.69,1.22
1970-01-01 00:00:44.452,113.81,-63.91,-51.48,96.82,7.43,-0.66,-6.73,-0.07,-0.66,0.34,145.03,-48.23,-15.89,0.61,0.51,-0.57,0.20,2.69,1.47
1970-01-01 00:00:44.553,113.81,-63.91,-51.48,96.82,7.43,-0.66,-6.73,-0.07,-0.66,0.34,145.03,-48.23,-15.89,0.61,0.51,-0.57,0.20,2.69,1.47
1970-01-01 00:00:44.653,113.81,-63.91,-51.48,96.82,7.43,-0.66,-6.73,-0.07,-0.66,0.34,145.03,-48.23,-15.89,0.61,0.51,-0.57,0.20,2.69,1.71
1970-01-01 00:00:44.755,113.81,-63.91,-51.48,96.82,7.43,-0.66,-6.73,-0.07,-0.66,0.34,145.03,-48.23,-15.89,0.61,0.51,-0.57,0.20,2.69,1.71
1970-01-01 00:00:44.855,113.81,-63.91,-51.48,96.82,7.43,-0.66,-6.73,-0.07,-0.66,0.34,145.03,-48.23,-15.89,0.61,0.51,-0.57,0.20,2.69,2.20
1970-01-01 00:00:44.956,113.81,-63.91,-51.48,96.82,7.43,-0.66,-6.73,-0.07,-0.66,0.34,145.03,-48.23,-15.89,0.61,0.51,-0.57,0.20,2.69,1.96
1970-01-01 00:00:45.058,113.81,-63.91,-51.48,96.82,7.43,-0.66,-6.73,-0.07,-0.66,0.34,145.03,-48.23,-15.89,0.61,0.51,-0.57,0.20,2.69,1.96
1970-01-01 00:00:45.158,113.81,-63.91,-51.48,96.82,7.43,-0.66,-6.73,-0.07,-0.66,0.34,145.03,-48.23,-15.89,0.61,0.51,-0.57,0.20,2.69,1.96
